~Version ---------------------------------------------------
VERS.   2.0 : CWLS log ASCII Standard -VERSION 2.0
WRAP.    NO : One line per depth step
DLM . SPACE : Column Data Section Delimiter
~Well ------------------------------------------------------
STRT.m          150.09995 : START DEPTH
STOP.m 3310.4187500000016 : STOP DEPTH
STEP.m 0.1524000000000001 : STEP
NULL.             -999.25 : NULL VALUE
COMP.                     : COMPANY
WELL.                  W1 : WELL
FLD .                     : FIELD
LOC .                     : LOCATION
PROV.                     : PROVINCE
CNTY.                     : COUNTY
STAT.                     : STATE
CTRY.                     : COUNTRY
SRVC.                     : SERVICE COMPANY
DATE.                     : DATE
UWI .                     : UNIQUE WELL ID
API .                     : API NUMBER
~Curve Information -----------------------------------------
DEPT.m      : 
CAL .UNKWN  : 
GR  .GAPI   : 
LLD .OHMM   : 
LLS .OHMM   : 
MSFL.UNKWN  : 
NPHI.V/V    : 
PE  .UNKWN  : 
RHOB.G/C3   : 
SP  .UNKWN  : 
~Params ----------------------------------------------------
~Other -----------------------------------------------------
This las is generated by Laggy, the splicing module developed by Ameyem Geosolutions exclusively for Cairn Vedanta...
~ASCII -----------------------------------------------------
# ...
 1629.75155   18.57742   67.59523   26.39378   20.27114    9.71908    0.41640    2.68707    2.17983   63.96981
 1629.90395   18.60367   72.17359   26.02864   19.94722    9.52261    0.42837    2.66269    2.17832   64.25917
 1630.05635   18.68120   81.16041   25.59206   19.57216    9.02066    0.54531    2.78566    2.17579   64.24248
 1630.20875   18.71881   82.22642   25.47510   19.51961    8.71714    0.55473    2.92916    2.18036   63.65910
 1630.36115   18.68206   77.79701   25.52166   19.59688    8.69945    0.55158    3.11896    2.18318   63.78900
 1630.51355   18.64522   73.79115   25.54046   19.69735    8.69930    0.50606    3.13871    2.18002   64.52402
 1630.66595   18.64030   67.41950   25.58149   19.76773    8.60497    0.55309    3.02536    2.17899   64.31596
 1630.81835   18.65715   64.12295   25.47925   19.71952    8.12182    0.64735    2.93179    2.17677   63.78953
 1630.97075   18.62353   62.37974   25.11001   19.45991    7.67092    0.64405    2.89616    2.16166   63.67780
 1631.12315   18.57151   63.91209   24.67377   19.08055    7.58779    0.60461    2.88444    2.15671   64.17063
 1631.27555   18.51435   67.80653   24.13024   18.56506    7.84669    0.54190    2.88495    2.16758   64.46030
 1631.42795   18.49889   69.54591   23.79001   18.21045    7.80179    0.49120    2.90917    2.16875   63.97270
 1631.58035   18.50124   76.01114   23.76131   18.12574    7.69208    0.46566    3.01438    2.17128   63.85974
 1631.73275   18.49701   80.47879   24.03068   18.30874    7.77010    0.44221    3.10001    2.18905   64.38048
 1631.88515   18.46250   75.47956   24.66768   18.86955    7.35902    0.50139    3.12051    2.21010   64.73273
 1632.03755   18.42405   68.91330   25.10509   19.22509    6.71110    0.46854    3.05882    2.20658   64.23551
 1632.18995   18.38366   64.70756   25.61893   19.57563    6.43543    0.45675    2.96498    2.19294   65.26767
 1632.34235   18.34178   65.61393   26.05800   19.85416    6.55800    0.48494    2.87639    2.18226   65.07998
 1632.49475   18.32680   70.49301   26.27342   20.02011    6.26235    0.45612    2.92777    2.18478   64.40348
 1632.64715   18.28298   74.57278   26.57694   20.21141    5.15591    0.48716    3.14904    2.19109   65.76670
 1632.79955   18.24640   71.79064   26.61862   20.29209    4.98477    0.42826    3.25674    2.20595   66.40355
 1632.95195   18.18824   63.39940   26.47439   20.21700    5.24574    0.39395    3.21935    2.25697   66.89284
 1633.10435   18.15481   56.85558   26.30345   20.10439    5.46260    0.38271    3.09330    2.27062   67.07603
 1633.25675   18.10090   56.20532   25.61495   19.64186    5.89150    0.32657    2.90394    2.24549   67.59426
 1633.40915   18.07107   62.63096   25.14520   19.24509    5.69598    0.35956    2.84132    2.22862   68.14976
 1633.56155   18.03695   70.72166   24.67053   18.89147    5.13839    0.34058    2.86510    2.20760   67.62102
 1633.71395   18.03570   74.13274   24.62036   18.81853    5.10013    0.32130    2.94677    2.19901   67.28313
 1633.86635   18.05071   75.57526   25.35804   19.25844    5.19155    0.29244    3.02427    2.20590   67.15499
 1634.01875   18.08362   77.71261   26.65033   20.09893    5.00394    0.27826    2.98893    2.21541   67.07506
 1634.17115   18.12288   83.30149   28.90635   21.60242    4.75169    0.27322    2.83062    2.22423   65.73405
 1634.32355   18.12171   82.25798   31.26213   23.17156    4.66392    0.27272    2.77138    2.23393   64.70657
 1634.47595   18.06722   77.83564   34.38351   25.05600    4.80814    0.25064    2.84305    2.24914   64.03205
 1634.62835   18.03015   72.69113   36.32501   26.19929    4.97707    0.24788    2.86696    2.26014   64.24990
 1634.78075   18.01370   69.04465   37.83496   26.96846    5.17158    0.24553    2.83288    2.26385   64.45068
 1634.93315   18.00973   70.87860   38.48524   27.25081    5.48885    0.23673    2.80787    2.25954   63.25945
 1635.08555   18.01068   72.67834   38.61775   27.23394    6.75770    0.24895    2.79649    2.26005   63.16782
 1635.23795   18.01377   71.23453   38.57065   27.19400    7.82191    0.25687    2.84499    2.26173   64.69245
 1635.39035   18.01651   68.07273   38.37214   27.15816    8.54101    0.24937    2.90203    2.26233   63.21664
 1635.54275   18.01661   66.98876   37.87693   27.00598    8.46170    0.24774    2.88716    2.25900   64.06651
 1635.69515   18.01460   67.02314   37.41248   26.84746    8.31111    0.24932    2.85653    2.26391   64.88708
 1635.84755   18.01265   63.09624   35.98047   25.92843    8.89667    0.27026    2.80739    2.31514   63.96170
 1635.99995   18.03460   61.38060   34.99030   25.36700    9.50290    0.25039    2.76862    2.34049   64.18000
 1636.15235   18.12764   64.97366   33.67580   24.51258   10.01172    0.27606    2.67755    2.30475   64.68625
 1636.30475   18.18660   68.15800   32.89280   24.06954    9.84655    0.29401    2.65443    2.27564   64.11209
 1636.45715   18.26565   69.89535   32.13529   23.70225    9.41476    0.30923    2.75976    2.27132   64.22109
 1636.60955   18.33071   72.24933   31.87926   23.64813    9.09214    0.32768    2.85617    2.27395   65.31421
 1636.76195   18.42321   72.28970   31.57533   23.59372    9.32938    0.34555    2.88219    2.25921   64.75170
 1636.91435   18.45723   66.95888   31.33306   23.54367    9.76021    0.36585    2.80229    2.24525   65.68766
 1637.06675   18.46703   60.88656   30.83407   23.26773   10.36741    0.34098    2.71639    2.23359   65.24124
 1637.21915   18.46866   61.13622   30.42005   23.02732   10.34973    0.34038    2.71902    2.22485   65.62585
 1637.37155   18.48820   60.98721   30.19792   22.96249   10.08466    0.34840    2.74847    2.22034   65.43142
 1637.52395   18.51990   57.83791   30.24365   23.03487   10.14756    0.37186    2.75625    2.22553   65.85207
 1637.67635   18.55566   56.51794   30.76414   23.50238   10.62827    0.34577    2.73692    2.24079   65.71424
 1637.82875   18.57433   58.74254   31.27030   23.83476   10.73497    0.35477    2.68842    2.25065   67.00376
 1637.98115   18.58819   64.24403   31.79254   24.24772   10.63516    0.39402    2.66050    2.25208   67.32991
 1638.13355   18.59180   64.63581   32.08405   24.42674   10.77833    0.41565    2.71755    2.25186   66.36290
 1638.28595   18.58191   64.91888   32.20284   24.51003   11.11208    0.39422    2.85017    2.25424   66.30168
 1638.43835   18.56600   66.52925   32.12466   24.45866   10.87752    0.34725    2.87714    2.24926   66.93996
 1638.59075   18.54811   65.19948   31.93536   24.34522   10.46759    0.36230    2.84416    2.24276   67.10730
 1638.74315   18.53197   61.25514   31.43326   24.07205    9.56007    0.36531    2.80595    2.23452   68.73421
 1638.89555   18.54396   63.11973   31.09532   23.89303    9.31641    0.34234    2.82163    2.22920   68.61706
 1639.04795   18.59882   66.04747   30.83414   23.78229    9.46622    0.33743    2.83839    2.22078   68.60670
 1639.20035   18.63999   63.38490   30.76166   23.81837    9.56796    0.33122    2.81330    2.21760   69.38327
 1639.35275   18.69348   61.91296   31.06004   24.18546   10.15330    0.33405    2.75570    2.21993   69.13944
 1639.50515   18.70983   63.70923   31.32971   24.41514   10.48699    0.33347    2.76532    2.23004   69.11749
 1639.65755   18.71904   61.98346   31.85801   24.80842   10.61158    0.35329    2.81476    2.24671   68.25790
 1639.80995   18.72320   64.01292   32.18116   24.92224   10.30088    0.36120    2.81248    2.24389   67.61570
 1639.96235   18.73152   76.56546   32.64018   25.22935    9.92815    0.37287    2.82798    2.23229   69.17450
 1640.11475   18.74442   85.79110   33.15420   25.60330    9.96616    0.39168    2.95325    2.23532   69.79989
 1640.26715   18.75856   87.32663   33.93057   26.30019   10.65260    0.35424    3.19895    2.25875   70.35420
 1640.41955   18.76809   82.17853   34.61141   26.90152   11.20661    0.34173    3.28306    2.27495   69.99874
 1640.57195   18.77136   69.78476   35.16748   27.41572   11.21786    0.34349    3.15607    2.27862   70.03933
 1640.72435   18.77290   61.85333   35.44852   27.68665   10.83162    0.34657    2.98516    2.26677   70.18830
