~Version ---------------------------------------------------
VERS.   2.0 : CWLS log ASCII Standard -VERSION 2.0
WRAP.    NO : One line per depth step
DLM . SPACE : Column Data Section Delimiter
~Well ------------------------------------------------------
STRT.m          150.09995 : START DEPTH
STOP.m 3310.4187500000016 : STOP DEPTH
STEP.m 0.1524000000000001 : STEP
NULL.             -999.25 : NULL VALUE
COMP.                     : COMPANY
WELL.                  W1 : WELL
FLD .                     : FIELD
LOC .                     : LOCATION
PROV.                     : PROVINCE
CNTY.                     : COUNTY
STAT.                     : STATE
CTRY.                     : COUNTRY
SRVC.                     : SERVICE COMPANY
DATE.                     : DATE
UWI .                     : UNIQUE WELL ID
API .                     : API NUMBER
~Curve Information -----------------------------------------
DEPT.m      : 
CAL .UNKWN  : 
GR  .GAPI   : 
LLD .OHMM   : 
LLS .OHMM   : 
MSFL.UNKWN  : 
NPHI.V/V    : 
PE  .UNKWN  : 
RHOB.G/C3   : 
SP  .UNKWN  : 
~Params ----------------------------------------------------
~Other -----------------------------------------------------
This las is generated by Laggy, the splicing module developed by Ameyem Geosolutions exclusively for Cairn Vedanta...
~ASCII -----------------------------------------------------
# ...
 2252.76275   11.72320   60.55654   16.36672   12.97725    7.11546    0.33686    5.64915    2.19267  -11.07524
 2252.91515   11.72070   64.86071   17.79562   14.31659    8.26962    0.34405    5.64088    2.22429  -11.42012
 2253.06755   11.71913   64.97625   20.45226   16.37967    8.37039    0.32506    5.75190    2.28297  -12.99628
 2253.21995   11.71910   64.32330   22.61722   17.87517    8.35064    0.32690    5.89585    2.30500  -14.05820
 2253.37235   11.72185   62.14980   23.67812   18.50243    8.32609    0.37352    5.88158    2.24893  -14.28758
 2253.52475   11.72540   59.86565   23.41789   18.32868    8.29600    0.37137    5.79909    2.19678  -14.02379
 2253.67715   11.72246   59.34351   22.20948   17.56555    8.10462    0.34588    5.82392    2.16836  -13.43431
 2253.82955   11.71544   60.26246   21.23622   16.88628    7.90985    0.36186    5.84840    2.15924  -12.85357
 2253.98195   11.70318   60.44348   20.30048   16.11451    7.77167    0.37232    5.76114    2.15391  -11.82403
 2254.13435   11.69435   59.11357   20.00532   15.75053    7.77167    0.37373    5.64973    2.15136  -10.94011
 2254.28675   11.68660   60.57595   20.02896   15.65398    7.77451    0.35543    5.51739    2.14873  -10.07529
 2254.43915   11.67759   65.87149   20.05689   15.69247    7.95539    0.37787    5.29182    2.14427   -8.66947
 2254.59155   11.67451   67.46622   18.46070   14.83198    8.07228    0.34445    5.22575    2.14396   -7.86859
 2254.74395   11.68714   63.90753   13.72064   11.91386    7.17212    0.34639    5.22884    2.14363   -6.33039
 2254.89635   11.68957   64.25430   10.27386    9.29811    5.44775    0.34894    5.20986    2.14848   -4.97952
 2255.04875   11.59654   70.84952    7.05091    6.33113    3.25592    0.37617    5.16792    2.15424   -0.86530
 2255.20115   11.49481   73.18268    5.91924    5.29871    2.67512    0.36567    5.18265    2.15704    2.01365
 2255.35355   11.34419   76.96319    5.20424    4.73343    2.71578    0.34796    5.14488    2.16957    4.99741
 2255.50595   11.27184   83.51994    5.09364    4.68399    2.74819    0.34016    4.82614    2.17096    5.37824
 2255.65835   11.19835   87.66825    5.07243    4.68403    2.79332    0.37321    3.85872    2.17280    5.00990
 2255.81075   11.21866   83.59928    5.02773    4.64178    2.79274    0.40026    3.41088    2.17708    4.99163
 2255.96315   11.39896   82.06614    5.01428    4.64573    2.72601    0.40336    3.28119    2.17275    5.05828
 2256.11555   11.59721   83.45109    5.24124    4.87779    2.67970    0.41315    3.34737    2.17133    5.15639
 2256.26795   11.73502   81.38761    6.25296    5.92875    3.54510    0.42549    3.55505    2.17171    4.63578
 2256.42035   11.76993   78.19264    7.96310    7.67342    5.39857    0.43353    3.68228    2.16975    3.45964
 2256.57275   11.77215   75.35254   11.76085   10.99348    8.56038    0.41158    3.72744    2.18250   -0.15393
 2256.72515   11.78547   72.68487   15.66525   13.71140    9.35043    0.38319    3.81855    2.19749   -3.60680
 2256.87755   11.79736   67.28458   19.30566   15.72580    9.20585    0.39469    4.10412    2.19915   -7.13070
 2257.02995   11.79793   64.24344   20.50036   16.33685    9.15763    0.37611    4.39761    2.18994   -8.67001
 2257.18235   11.79376   64.75402   20.06533   16.20520    9.28605    0.35849    4.76958    2.18160   -9.63847
 2257.33475   11.79102   62.69500   19.88088   16.17410    9.44283    0.36845    4.88515    2.18009   -9.94588
 2257.48715   11.79056   59.85737   19.89168   16.18542    9.45289    0.36165    4.85519    2.18268  -10.18020
 2257.63955   11.80592   61.50314   20.29383   16.29005    9.08560    0.35222    4.81596    2.18442  -10.53074
 2257.79195   11.82850   64.03410   20.67818   16.41623    8.38931    0.34644    4.84371    2.18336  -10.67809
 2257.94435   11.83861   69.11268   21.46858   16.78316    8.14083    0.34056    4.86296    2.18263  -10.79437
 2258.09675   11.83005   71.77699   21.95032   17.05366    8.40781    0.34065    4.82673    2.18350  -10.76902
 2258.24915   11.81724   72.53681   22.64650   17.46771    8.82618    0.33424    4.86756    2.18461  -10.91974
 2258.40155   11.82003   71.73232   22.93008   17.64788    8.78858    0.35650    5.00052    2.18441  -10.99639
 2258.55395   11.82242   71.49290   23.19486   17.85845    8.61898    0.35269    5.13326    2.17727  -10.61566
 2258.70635   11.82189   72.53727   23.23266   17.94890    8.46696    0.36983    5.09014    2.17633  -10.23321
 2258.85875   11.82252   70.77725   23.16505   18.01142    8.69585    0.35300    4.95110    2.18946   -9.79084
 2259.01115   11.82695   67.51514   22.91893   17.94098    8.86820    0.35247    4.86443    2.19613   -9.57412
 2259.16355   11.83520   67.91345   21.76001   17.27204    8.95886    0.33622    4.77360    2.19714   -9.32642
 2259.31595   11.83501   71.30209   20.34172   16.39182    8.70726    0.34411    4.74142    2.19489   -9.11565
 2259.46835   11.81679   72.68471   18.34897   15.03350    7.87031    0.35635    4.74609    2.18938   -8.68336
 2259.62075   11.80353   71.74445   16.70385   13.85456    7.21037    0.35128    4.70785    2.19260   -8.26768
 2259.77315   11.80748   72.04852   15.46016   12.91534    6.43837    0.35246    4.67587    2.20801   -7.47767
 2259.92555   11.82345   69.71071   15.10020   12.64171    5.49248    0.33901    4.78331    2.22171   -6.83845
 2260.07795   11.81998   65.17229   15.83823   13.31269    4.90708    0.33503    5.05543    2.24940   -5.78644
 2260.23035   11.80286   62.22291   17.14052   14.50354    5.05613    0.35148    5.26873    2.27551   -5.29939
 2260.38275   11.81215   59.51146   20.05692   16.99934    7.28742    0.34313    5.57323    2.31050   -6.22283
 2260.53515   11.85341   58.27960   22.53418   18.98868    8.93852    0.36203    5.62815    2.32352   -7.38864
 2260.68755   11.87148   57.39774   24.87988   20.76710   10.84004    0.34850    5.44928    2.32017   -8.53336
 2260.83995   11.85327   52.82436   28.23625   23.33747   11.17605    0.34206    4.94983    2.29291   -9.93859
 2260.99235   11.84307   48.22129   29.96542   24.76535   10.55040    0.32649    4.67220    2.26251  -10.38360
 2261.14475   11.85175   47.76664   31.82767   26.24386    9.72236    0.31015    4.56024    2.23709  -11.02401
 2261.29715   11.85866   51.09093   32.42418   26.66676    9.50976    0.29893    4.83225    2.26369  -11.16208
 2261.44955   11.88045   54.88253   32.77753   26.61787    9.41504    0.30984    5.37013    2.30154  -11.45604
 2261.60195   11.89355   56.10082   32.81323   26.46898    9.48228    0.30406    5.39647    2.28982  -11.57087
 2261.75435   11.90142   54.36822   32.98366   26.39286    9.49981    0.30457    5.19802    2.25771  -11.70991
 2261.90675   11.89675   52.74428   33.21808   26.47151    9.35733    0.29757    5.13668    2.24338  -11.77158
 2262.05915   11.88384   54.58124   33.50139   26.54574    9.09202    0.30312    5.06807    2.23812  -11.50797
 2262.21155   11.87790   53.82583   33.63175   26.56748    9.10747    0.30606    5.07938    2.24528  -11.34006
 2262.36395   11.87112   49.57668   33.55904   26.36343    9.16550    0.32201    5.16689    2.24781  -10.97259
 2262.51635   11.86361   46.88641   33.35888   26.07894    9.23460    0.31899    5.19815    2.23979  -11.05270
 2262.66875   11.86493   48.02504   33.17453   25.79281    9.41703    0.32719    5.12514    2.22939  -11.15546
 2262.82115   11.87994   52.11074   33.04838   25.58770    9.40993    0.33832    5.01100    2.21959  -11.39112
 2262.97355   11.89730   55.13182   32.98208   25.42911    9.16256    0.36512    4.89024    2.20326  -11.44032
 2263.12595   11.88785   53.93243   32.97055   25.34215    9.11173    0.35252    4.84973    2.19984  -11.54379
 2263.27835   11.85379   49.59389   32.75063   25.05275    9.26570    0.34354    4.78639    2.20579  -11.53717
 2263.43075   11.83453   48.40711   32.45252   24.74055    9.28214    0.33560    4.74392    2.20795  -11.52227
 2263.58315   11.82067   53.49960   31.81769   24.18903    9.50119    0.36287    4.83093    2.21031  -11.56032
 2263.73555   11.81482   54.38198   31.19405   23.67082    9.68923    0.38947    4.93134    2.21116  -11.44621
