~Version ---------------------------------------------------
VERS.   2.0 : CWLS log ASCII Standard -VERSION 2.0
WRAP.    NO : One line per depth step
DLM . SPACE : Column Data Section Delimiter
~Well ------------------------------------------------------
STRT.m          150.09995 : START DEPTH
STOP.m 3310.4187500000016 : STOP DEPTH
STEP.m 0.1524000000000001 : STEP
NULL.             -999.25 : NULL VALUE
COMP.                     : COMPANY
WELL.                  W1 : WELL
FLD .                     : FIELD
LOC .                     : LOCATION
PROV.                     : PROVINCE
CNTY.                     : COUNTY
STAT.                     : STATE
CTRY.                     : COUNTRY
SRVC.                     : SERVICE COMPANY
DATE.                     : DATE
UWI .                     : UNIQUE WELL ID
API .                     : API NUMBER
~Curve Information -----------------------------------------
DEPT.m      : 
CAL .UNKWN  : 
GR  .GAPI   : 
LLD .OHMM   : 
LLS .OHMM   : 
MSFL.UNKWN  : 
NPHI.V/V    : 
PE  .UNKWN  : 
RHOB.G/C3   : 
SP  .UNKWN  : 
~Params ----------------------------------------------------
~Other -----------------------------------------------------
This las is generated by Laggy, the splicing module developed by Ameyem Geosolutions exclusively for Cairn Vedanta...
~ASCII -----------------------------------------------------
# ...
 3298.53155   11.94600    -999.25    0.02500    0.31562    4.61022    0.32898    4.81631    2.20372    -999.25
 3298.68395   12.03162    -999.25    0.02500    0.31430    3.89228    0.31395    5.03914    2.21302    -999.25
 3298.83635   12.08283    -999.25    0.02500    0.31337    3.56548    0.34504    5.22929    2.22560    -999.25
 3298.98875   12.10897    -999.25    0.02500    0.31332    3.43560    0.35394    5.35039    2.22801    -999.25
 3299.14115   12.05548    -999.25    0.02500    0.31392    3.78579    0.34880    5.36407    2.21016    -999.25
 3299.29355   11.99282    -999.25    0.02500    0.31419    3.92190    0.36769    5.26452    2.20034    -999.25
 3299.44595   11.91544    -999.25    0.02500    0.31604    4.17719    0.34892    5.09869    2.19108    -999.25
 3299.59835   11.90190    -999.25    0.02500    0.31819    4.16676    0.33005    5.05800    2.18960    -999.25
 3299.75075   11.88537    -999.25    4.10139    4.86633    4.15792    0.36958    5.03321    2.20060    -999.25
 3299.90315   11.86940    -999.25    5.39076    5.58589    4.21166    0.35695    5.01715    2.20893    -999.25
 3300.05555   11.83085    -999.25    6.34524    6.07708    4.19746    0.34927    4.97905    2.22075    -999.25
 3300.20795   11.79579    -999.25    6.53710    6.24164    4.25636    0.34135    4.96391    2.22450    -999.25
 3300.36035   11.75012    -999.25    6.53876    6.24063    4.44683    0.37400    4.95491    2.22145    -999.25
 3300.51275   11.73860    -999.25    6.53993    6.24073    4.60075    0.35688    4.93037    2.21970    -999.25
 3300.66515   11.73964    -999.25    6.53932    6.24165    4.49390    0.35425    4.89266    2.21650    -999.25
 3300.81755   11.73437    -999.25    6.54316    6.24070    4.19058    0.33231    4.87433    2.20926    -999.25
 3300.96995   11.69928    -999.25    6.54139    6.24098    3.90527    0.34813    4.80839    2.20042    -999.25
 3301.12235   11.66057    -999.25    6.54238    6.24104    3.84229    0.34894    4.71021    2.19829    -999.25
 3301.27475   11.61535    -999.25    6.54256    6.24340    3.79424    0.33222    4.70532    2.19932    -999.25
 3301.42715   11.58228    -999.25    6.54205    6.24385    3.68287    0.34209    4.82442    2.19796    -999.25
 3301.57955   11.54509    -999.25    6.54228    6.24408    3.45588    0.32497    4.89167    2.19673    -999.25
 3301.73195   11.53130    -999.25    6.54206    6.24328    3.29854    0.33839    4.79008    2.19930    -999.25
 3301.88435   11.52120    -999.25    6.54442    6.24125    3.24079    0.34517    4.60321    2.19724    -999.25
 3302.03675   11.50171    -999.25    6.54363    6.24172    3.39152    0.33641    4.58076    2.19349    -999.25
 3302.18915   11.47268    -999.25    6.54362    6.24158    3.69447    0.30871    4.66191    2.19595    -999.25
 3302.34155   11.41689    -999.25    6.54382    6.24385    4.05983    0.33084    4.80037    2.21207    -999.25
 3302.49395   11.36854    -999.25    6.54355    6.24560    3.92000    0.34942    4.80005    2.21911    -999.25
 3302.64635   11.16425    -999.25    6.54515    6.24569    3.63303    0.35048    4.67532    2.21836    -999.25
 3302.79875   10.96044    -999.25    6.54599    6.24610    3.36667    0.32850    4.57941    2.22039    -999.25
 3302.95115   10.52583    -999.25    6.54471    6.24518    3.00048    0.33295    4.59660    2.22922    -999.25
 3303.10355   10.26391    -999.25    6.54634    6.24654    2.80120    0.33083    4.70304    2.22840    -999.25
 3303.25595    9.50354    -999.25    6.54413    6.24473    2.37325    0.34741    4.83089    2.21991    -999.25
 3303.40835    8.52807    -999.25    6.54178    6.24548    1.95271    0.34333    4.87381    2.21351    -999.25
 3303.56075    7.04025    -999.25    6.54069    6.24341    1.47857    0.34062    4.88058    2.21472    -999.25
 3303.71315    6.54846    -999.25    6.54123    6.24315    1.33228    0.36038    4.84161    2.22722    -999.25
 3303.86555    6.54103    -999.25    6.54317    6.24493    1.27034    0.35497    4.81432    2.23862    -999.25
 3304.01795    6.53364    -999.25    6.54383    6.24512    1.24144    0.35496    4.85447    2.24064    -999.25
 3304.17035    6.51505    -999.25    6.55023    6.24807    1.22795    0.38996    5.01906    2.24571    -999.25
 3304.32275    6.51139    -999.25    -999.25    -999.25    1.22200    0.41455    5.13011    2.25118    -999.25
 3304.47515    6.51170    -999.25    -999.25    -999.25    1.21541    -999.25    5.19937    2.24944    -999.25
 3304.62755    6.51154    -999.25    -999.25    -999.25    1.21093    -999.25    5.29051    2.23320    -999.25
 3304.77995    6.51180    -999.25    -999.25    -999.25    1.20938    -999.25    5.44322    2.19642    -999.25
 3304.93235    6.51250    -999.25    -999.25    -999.25    1.21366    -999.25    5.51434    2.18634    -999.25
 3305.08475    6.51287    -999.25    -999.25    -999.25    1.22379    -999.25    5.55005    2.19682    -999.25
 3305.23715    6.51290    -999.25    -999.25    -999.25    1.22807    -999.25    5.56803    2.20027    -999.25
 3305.38955    6.51290    -999.25    -999.25    -999.25    1.23010    -999.25    5.58990    2.20166    -999.25
 3305.54195    6.51290    -999.25    -999.25    -999.25    1.23080    -999.25    5.65573    2.20508    -999.25
 3305.69435    6.51290    -999.25    -999.25    -999.25    1.23089    -999.25    5.73274    2.20203    -999.25
 3305.84675    6.51290    -999.25    -999.25    -999.25    1.23119    -999.25    5.86303    2.18350    -999.25
 3305.99915    6.51290    -999.25    -999.25    -999.25    1.23150    -999.25    5.94271    2.17823    -999.25
 3306.15155    6.51290    -999.25    -999.25    -999.25    1.23190    -999.25    6.13475    2.19082    -999.25
 3306.30395    6.51290    -999.25    -999.25    -999.25    1.23211    -999.25    6.23736    2.19295    -999.25
 3306.45635    6.51290    -999.25    -999.25    -999.25    1.23230    -999.25    6.30671    2.18311    -999.25
 3306.60875    6.51290    -999.25    -999.25    -999.25    1.23239    -999.25    6.34169    2.18105    -999.25
 3306.76115    6.51290    -999.25    -999.25    -999.25    1.23224    -999.25    6.36866    2.18403    -999.25
 3306.91355    6.51290    -999.25    -999.25    -999.25    1.23207    -999.25    6.32695    2.18291    -999.25
 3307.06595    6.51290    -999.25    -999.25    -999.25    1.23183    -999.25    6.31639    2.17610    -999.25
 3307.21835    6.51290    -999.25    -999.25    -999.25    1.23180    -999.25    6.40782    2.17303    -999.25
 3307.37075    6.51290    -999.25    -999.25    -999.25    1.23180    -999.25    6.44000    2.12733    -999.25
 3307.52315    6.51290    -999.25    -999.25    -999.25    1.23168    -999.25  -85.72707  -89.61931    -999.25
 3307.67555    6.51290    -999.25    -999.25    -999.25    1.23160    -999.25 -514.84557 -516.88392    -999.25
 3307.82795    6.51290    -999.25    -999.25    -999.25    1.23173    -999.25    -999.25    -999.25    -999.25
 3307.98035    6.51290    -999.25    -999.25    -999.25    1.23196    -999.25    -999.25    -999.25    -999.25
 3308.13275    6.51290    -999.25    -999.25    -999.25    1.23187    -999.25    -999.25    -999.25    -999.25
 3308.28515    6.51290    -999.25    -999.25    -999.25    1.23154    -999.25    -999.25    -999.25    -999.25
 3308.43755    6.51290    -999.25    -999.25    -999.25    1.23126    -999.25    -999.25    -999.25    -999.25
 3308.58995    6.51290    -999.25    -999.25    -999.25    1.23102    -999.25    -999.25    -999.25    -999.25
 3308.74235    6.51290    -999.25    -999.25    -999.25    1.23070    -999.25    -999.25    -999.25    -999.25
 3308.89475    6.51290    -999.25    -999.25    -999.25    1.23079    -999.25    -999.25    -999.25    -999.25
 3309.04715    6.51290    -999.25    -999.25    -999.25    1.23090    -999.25    -999.25    -999.25    -999.25
 3309.19955    -999.25    -999.25    -999.25    -999.25    -999.25    -999.25    -999.25    -999.25    -999.25
 3309.35195    -999.25    -999.25    -999.25    -999.25    -999.25    -999.25    -999.25    -999.25    -999.25
 3309.50435    -999.25    -999.25    -999.25    -999.25    -999.25    -999.25    -999.25    -999.25    -999.25
