~Version ---------------------------------------------------
VERS.   2.0 : CWLS log ASCII Standard -VERSION 2.0
WRAP.    NO : One line per depth step
DLM . SPACE : Column Data Section Delimiter
~Well ------------------------------------------------------
STRT.m          150.09995 : START DEPTH
STOP.m 3310.4187500000016 : STOP DEPTH
STEP.m 0.1524000000000001 : STEP
NULL.             -999.25 : NULL VALUE
COMP.                     : COMPANY
WELL.                  W1 : WELL
FLD .                     : FIELD
LOC .                     : LOCATION
PROV.                     : PROVINCE
CNTY.                     : COUNTY
STAT.                     : STATE
CTRY.                     : COUNTRY
SRVC.                     : SERVICE COMPANY
DATE.                     : DATE
UWI .                     : UNIQUE WELL ID
API .                     : API NUMBER
~Curve Information -----------------------------------------
DEPT.m      : 
CAL .UNKWN  : 
GR  .GAPI   : 
LLD .OHMM   : 
LLS .OHMM   : 
MSFL.UNKWN  : 
NPHI.V/V    : 
PE  .UNKWN  : 
RHOB.G/C3   : 
SP  .UNKWN  : 
~Params ----------------------------------------------------
~Other -----------------------------------------------------
This las is generated by Laggy, the splicing module developed by Ameyem Geosolutions exclusively for Cairn Vedanta...
~ASCII -----------------------------------------------------
# ...
 3087.15275   12.33347   61.89895    7.12960    6.85520    7.29727    0.27379    5.05871    2.19617   -8.51997
 3087.30515   12.34317   67.41105    6.35731    6.06125    5.28236    0.27160    5.47708    2.17065   -6.99311
 3087.45755   12.24529   73.08859    5.62965    5.35074    3.80333    0.28949    5.64066    2.15503   -5.07183
 3087.60995   12.16614   75.67835    5.57546    5.33519    4.00775    0.30676    5.38396    2.18242   -4.73124
 3087.76235   12.13344   79.56238    5.95441    5.74318    4.73811    0.28712    4.94814    2.24583   -6.10728
 3087.91475   12.14917   83.13504    6.48025    6.26740    4.89124    0.27833    4.80961    2.28758   -7.39776
 3088.06715   12.13161   84.56908    7.28579    7.04118    5.98172    0.26846    4.87980    2.29717   -8.38061
 3088.21955   12.08634   77.86017    7.91194    7.65366    6.50948    0.26890    4.78135    2.29242   -9.17803
 3088.37195   12.02345   67.54986    8.21700    7.94686    6.67504    0.25154    4.49232    2.27495   -9.82139
 3088.52435   11.99124   66.61001    8.22277    7.93437    6.61871    0.25523    4.30010    2.26660   -9.92335
 3088.67675   11.97432   67.98139    7.94767    7.58531    7.37748    0.27611    4.18370    2.26576   -9.81997
 3088.82915   11.96773   68.28212    7.76223    7.36065    7.65843    0.29855    4.20954    2.26149   -9.74880
 3088.98155   11.96235   71.23840    7.65167    7.19358    7.86414    0.29218    4.44329    2.26012   -9.78724
 3089.13395   11.95957   73.91070    7.63343    7.13437    7.84190    0.29307    4.66573    2.26429   -9.59281
 3089.28635   11.96114   74.53984    7.62082    7.08190    7.62445    0.29308    4.85148    2.26707   -9.27726
 3089.43875   11.96174   75.48791    7.55188    6.98551    7.41517    0.30602    4.99056    2.27133   -9.24860
 3089.59115   11.96068   78.26709    7.47019    6.91851    7.38286    0.31083    4.95769    2.27270   -9.23675
 3089.74355   11.96257   81.19414    7.31895    6.82113    7.38968    0.31542    4.76200    2.26320   -9.25381
 3089.89595   11.96543   81.96416    7.24360    6.77886    7.37650    0.29523    4.60123    2.25381   -9.47954
 3090.04835   11.97221   82.73543    7.22559    6.79621    7.29501    0.29382    4.33081    2.24745   -9.74894
 3090.20075   11.97453   80.55805    7.26251    6.85148    7.13262    0.33735    4.19032    2.23289   -9.72769
 3090.35315   11.97787   79.41096    7.39809    7.01734    7.34292    0.35037    4.06398    2.17869   -9.31581
 3090.50555   11.97896   82.01099    7.45430    7.10458    7.40459    0.34570    4.11044    2.17366   -9.21184
 3090.65795   12.01307   85.68177    7.28390    6.99758    7.17851    0.32830    4.27993    2.22942   -8.68094
 3090.81035   12.07321   88.40743    7.04022    6.76929    6.54351    0.34254    4.34990    2.25290   -8.36299
 3090.96275   12.23903   87.52645    6.74691    6.43603    5.98463    0.36859    4.79659    2.12524   -7.18120
 3091.11515   12.42871   80.89713    6.58692    6.23267    5.39034    0.35739    5.54403    1.90673   -5.94202
 3091.26755   12.41943   73.69183    6.60344    6.22883    5.34338    0.36541    5.90363    1.85876   -3.74397
 3091.41995   12.25472   69.66560    6.53576    6.19502    5.48255    0.31566    5.42891    2.03087   -2.62211
 3091.57235   12.06407   69.55303    6.09067    5.80336    5.52563    0.30592    4.62199    2.19645   -2.87348
 3091.72475   12.04211   73.11878    5.74711    5.48752    4.86327    0.29698    4.54543    2.20806   -3.65942
 3091.87715   12.07600   78.06203    5.71614    5.47572    4.08353    0.30580    5.14304    2.21963   -4.34445
 3092.02955   12.09186   75.75324    6.12302    5.96210    4.74971    0.29482    5.32984    2.26735   -4.62511
 3092.18195   12.11593   63.49686    7.31807    7.23580    7.38521    0.29266    4.63421    2.28981   -5.63019
 3092.33435   12.15344   56.10866    8.26851    8.10058    8.74799    0.27668    4.08502    2.26341   -7.15527
 3092.48675   12.17676   53.04991    8.95251    8.65414    8.40877    0.26133    3.98686    2.24333   -8.83311
 3092.63915   12.17654   57.74501    9.35749    8.89578    8.24909    0.26392    4.56406    2.23312  -10.58020
 3092.79155   12.15868   60.85950    9.24915    8.76789    8.46323    0.26913    4.83769    2.22418  -11.17127
 3092.94395   12.13932   60.45847    9.05218    8.60941    9.08972    0.26893    4.69152    2.22355  -12.15404
 3093.09635   12.15263   57.35991    9.01361    8.57189    9.07563    0.24989    4.45453    2.22934  -12.25241
 3093.24875   12.19516   55.54320    8.99776    8.50257    8.75792    0.24045    4.15029    2.22842  -12.45124
 3093.40115   12.21470   55.92787    8.99439    8.45566    8.67722    0.24503    4.03535    2.22407  -12.81897
 3093.55355   12.23789   51.94638    8.97998    8.39004    9.31897    0.26045    4.02433    2.22135  -12.40207
 3093.70595   12.25853   50.61919    8.95025    8.35001    9.50469    0.25774    4.08740    2.22482  -12.60888
 3093.85835   12.27840   53.40128    8.89333    8.29685    9.33163    0.25935    4.12571    2.22974  -13.60909
 3094.01075   12.27948   54.41857    8.86545    8.27134    9.15437    0.25817    4.13014    2.22684  -13.78417
 3094.16315   12.27892   56.39672    8.88279    8.28878    9.22080    0.25657    4.17857    2.22201  -13.78484
 3094.31555   12.24806   58.06195    8.95133    8.35754    9.37477    0.24606    4.19324    2.22399  -13.44543
 3094.46795   12.17263   58.76399    9.11306    8.51873    9.52753    0.24576    4.04089    2.24495  -13.09942
 3094.62035   12.11462   58.57246    9.24505    8.65474    9.28866    0.24073    3.88284    2.26368  -13.11124
 3094.77275   12.07608   56.49852    9.32381    8.74761    8.38297    0.22449    3.85888    2.26313  -13.12275
 3094.92515   12.05632   55.42906    9.32266    8.75379    7.78061    0.22878    3.88374    2.25787  -12.84216
 3095.07755   12.05371   55.05400    9.28155    8.72498    6.90457    0.22809    3.82629    2.25644  -12.72011
 3095.22995   12.02760   55.27735    9.23034    8.68322    6.19074    0.22972    3.77758    2.25183  -12.79527
 3095.38235   11.93803   59.34877    9.19346    8.66064    6.98228    0.22606    3.68402    2.25063  -13.03330
 3095.53475   11.87681   60.82057    9.16388    8.64431    8.30729    0.23309    3.50345    2.26080  -13.34041
 3095.68715   11.86434   61.02939    9.12812    8.61839    9.16608    0.23259    3.34135    2.26588  -13.61498
 3095.83955   11.89332   62.60242    9.05097    8.57659    9.20147    0.22954    3.39620    2.25603  -13.58653
 3095.99195   11.91769   63.52825    9.03069    8.57568    9.22092    0.22877    3.45170    2.24892  -13.54896
 3096.14435   11.94524   62.50085    9.03372    8.60902    9.23951    0.22546    3.40650    2.23642  -13.22772
 3096.29675   11.95141   60.39490    9.07638    8.65308    9.21603    0.24061    3.40041    2.22845  -13.24023
 3096.44915   11.95241   56.08370    9.18511    8.74503    8.82286    0.25195    3.38509    2.22122  -13.18696
 3096.60155   11.94793   53.51973    9.25066    8.80049    8.40625    0.23250    3.37346    2.21868  -13.10874
 3096.75395   11.93555   52.27821    9.33911    8.87772    8.39131    0.22359    3.35116    2.21819  -13.46900
 3096.90635   11.92934   52.93796    9.37371    8.91240    8.76885    0.22315    3.28436    2.21680  -13.46775
 3097.05875   11.92010   55.10711    9.38422    8.91964    9.15385    0.23187    3.21223    2.21171  -13.30531
 3097.21115   11.92016   55.81805    9.36528    8.89343    8.94623    0.23221    3.20776    2.22066  -13.28820
 3097.36355   11.92760   59.04018    9.30901    8.82841    8.45567    0.22825    3.20633    2.24316  -13.02156
 3097.51595   11.93273   60.56966    9.26600    8.78267    8.18799    0.22561    3.25905    2.25258  -12.99979
 3097.66835   11.94266   58.43803    9.18327    8.71352    8.67140    0.24606    3.43594    2.25193  -12.89538
 3097.82075   11.95903   57.71909    9.12290    8.67356    9.01092    0.25004    3.53791    2.25635  -12.62444
 3097.97315   11.98377   58.20992    9.05919    8.64654    8.78818    0.24314    3.47125    2.26235  -12.73580
 3098.12555   11.99838   59.28167    9.03043    8.64381    8.48320    0.24409    3.39593    2.26147  -12.92502
