~Version ---------------------------------------------------
VERS.   2.0 : CWLS log ASCII Standard -VERSION 2.0
WRAP.    NO : One line per depth step
DLM . SPACE : Column Data Section Delimiter
~Well ------------------------------------------------------
STRT.m          150.09995 : START DEPTH
STOP.m 3310.4187500000016 : STOP DEPTH
STEP.m 0.1524000000000001 : STEP
NULL.             -999.25 : NULL VALUE
COMP.                     : COMPANY
WELL.                  W1 : WELL
FLD .                     : FIELD
LOC .                     : LOCATION
PROV.                     : PROVINCE
CNTY.                     : COUNTY
STAT.                     : STATE
CTRY.                     : COUNTRY
SRVC.                     : SERVICE COMPANY
DATE.                     : DATE
UWI .                     : UNIQUE WELL ID
API .                     : API NUMBER
~Curve Information -----------------------------------------
DEPT.m      : 
CAL .UNKWN  : 
GR  .GAPI   : 
LLD .OHMM   : 
LLS .OHMM   : 
MSFL.UNKWN  : 
NPHI.V/V    : 
PE  .UNKWN  : 
RHOB.G/C3   : 
SP  .UNKWN  : 
~Params ----------------------------------------------------
~Other -----------------------------------------------------
This las is generated by Laggy, the splicing module developed by Ameyem Geosolutions exclusively for Cairn Vedanta...
~ASCII -----------------------------------------------------
# ...
  161.22515    -999.25    -999.25    -999.25    -999.25    -999.25    -999.25    -999.25    -999.25    -999.25
  161.37755    -999.25    -999.25    -999.25    -999.25    -999.25    -999.25    -999.25    -999.25    -999.25
  161.52995    -999.25    -999.25    -999.25    -999.25    -999.25    -999.25    -999.25    -999.25    -999.25
  161.68235    -999.25    -999.25    -999.25    -999.25    -999.25    -999.25    -999.25    -999.25    -999.25
  161.83475    -999.25    -999.25    -999.25    -999.25    -999.25    -999.25    -999.25    -999.25    -999.25
  161.98715    -999.25    -999.25    -999.25    -999.25    -999.25    -999.25    -999.25    -999.25    -999.25
  162.13955    -999.25    -999.25    -999.25    -999.25    -999.25    -999.25    -999.25    -999.25    -999.25
  162.29195    -999.25    -999.25    -999.25    -999.25    -999.25    -999.25    -999.25    -999.25    -999.25
  162.44435    -999.25    -999.25    -999.25    -999.25    -999.25    -999.25    -999.25    -999.25    -999.25
  162.59675    -999.25    -999.25    -999.25    -999.25    -999.25    -999.25    -999.25    -999.25    -999.25
  162.74915    -999.25    -999.25    -999.25    -999.25    -999.25    -999.25    -999.25    -999.25    -999.25
  162.90155    -999.25    -999.25    -999.25    -999.25    -999.25    -999.25    -999.25    -999.25    -999.25
  163.05395    -999.25    -999.25    -999.25    -999.25    -999.25    -999.25    -999.25    -999.25    -999.25
  163.20635   18.68859   84.43238   92.37804   35.71394    3.38044    -999.25    -999.25    -999.25   97.57791
  163.35875   18.68582   84.62106   94.34310   36.52267    3.57734    -999.25    -999.25    -999.25   96.77377
  163.51115   18.68233   87.54089   94.86086   37.04727    3.73862    0.45487    2.91321    2.05681   96.21124
  163.66355   18.67689   93.24499   94.18631   36.90623    3.80363    0.52306    3.01489    2.06670   95.16429
  163.81595   18.67441   95.52328   93.26722   36.46138    3.74171    0.53412    3.01632    2.05168   94.57552
  163.96835   18.67954   86.96499   93.90715   36.60611    3.56069    0.51822    2.93416    2.01912   94.24746
  164.12075   18.67747   77.04129   95.74047   36.89082    3.45656    0.50653    2.89780    2.01101   93.79603
  164.27315   18.65454   73.34105   99.47512   37.97020    3.74955    0.58228    2.83033    2.02335   92.83180
  164.42555   18.63537   73.44239  102.17041   39.16597    4.11281    0.48773    2.76814    2.01483   92.05199
  164.57795   18.62369   66.89113  103.05172   39.77494    4.13693    0.44795    2.78104    1.97338   90.84964
  164.73035   18.61337   60.87165  102.54703   40.15291    4.14310    0.50949    2.81799    1.96187   89.96195
  164.88275   18.59051   61.12673  101.22754   40.69580    4.36568    0.51412    2.78170    1.98887   89.44663
  165.03515   18.57995   63.91878  100.70235   40.77567    4.52305    0.51832    2.72277    2.00620   89.15081
  165.18755   18.57916   66.37614  101.14183   41.45735    4.44070    0.55592    2.68410    2.00707   88.69775
  165.33995   18.58752   69.87716  102.50242   42.29980    4.32600    0.54825    2.67098    1.98279   87.97860
  165.49235   18.59019   71.29028  103.23132   42.32203    4.28379    0.58670    2.68015    1.96690   87.78813
  165.64475   18.59991   67.09285  105.02816   42.94681    4.22577    0.57151    2.73769    1.95126   87.79871
  165.79715   18.60864   63.84108  105.36248   42.96811    4.14853    0.51506    2.79727    1.94461   87.78386
  165.94955   18.62144   64.37928  104.46783   42.36727    4.20269    0.57299    2.88384    1.95071   87.48158
  166.10195   18.62655   64.99433  102.98871   42.09355    4.39775    0.55642    2.90852    1.96574   87.25589
  166.25435   18.63588   68.48601   99.45478   40.50816    4.57320    0.70891    2.91755    1.99028   87.42414
  166.40675   18.64080   71.72421   97.08804   39.65370    4.58980    0.61519    2.89630    1.99704   87.38575
  166.55915   18.64151   70.64500   93.24566   38.64504    4.94821    0.63384    2.86927    2.00777   87.05171
  166.71155   18.63954   70.26374   90.37758   37.56040    5.04993    0.67884    2.90099    2.01666   86.64965
  166.86395   18.63772   74.00508   86.11952   36.65032    4.57793    0.60860    2.93016    1.99871   86.04850
  167.01635   18.63802   74.00104   82.74438   35.76166    3.96810    0.65103    2.92301    1.95772   85.73392
  167.16875   18.63810   66.85424   81.27432   35.11721    3.63357    0.65966    2.92736    1.91758   86.07150
  167.32115   18.63674   62.47642   81.65037   35.63651    3.58067    0.65977    2.92141    1.90719   86.05619
  167.47355   18.63430   63.28567   83.88492   36.22978    3.62124    0.63174    2.87785    1.88970   85.25579
  167.62595   18.63462   65.93156   85.68385   36.78803    3.59434    0.64971    2.85409    1.85467   84.10224
  167.77835   18.64057   65.73923   86.34215   37.30539    3.52270    0.70267    2.81218    1.79962   83.13734
  167.93075   18.64394   64.48655   85.47488   36.92409    3.47869    0.68867    2.73876    1.77196   82.82042
  168.08315   18.64470   65.43471   82.23453   36.24016    3.51473    0.59887    2.63798    1.74820   82.37481
  168.23555   18.64406   64.65960   79.21807   35.58848    3.53631    0.53188    2.63167    1.72570   81.88143
  168.38795   18.64400   62.27084   76.50441   34.59904    3.51404    0.50642    2.67007    1.70599   81.49620
  168.54035   18.62214   59.94745   71.06764   33.24382    3.58752    0.68147    2.76108    1.72395   81.21087
  168.69275   18.58620   60.03139   67.42032   32.54205    4.05134    0.69975    2.82537    1.76252   81.10458
  168.84515   18.51908   62.52698   60.54204   30.10098    4.84283    0.68817    2.86215    1.78646   80.71802
  168.99755   18.49755   63.60996   56.98617   29.20260    4.90581    0.69001    2.87399    1.78938   80.37331
  169.14995   18.49655   65.17535   48.57075   26.19740    5.02930    0.63988    2.98317    1.86023   79.21635
  169.30235   18.49749   69.44885   45.52918   24.66523    5.57189    0.77236    2.99928    1.90300   78.46916
  169.45475   18.48418   77.95221   42.76915   24.03022    6.74459    0.58208    2.89704    1.91237   77.37340
  169.60715   18.46587   81.69387   42.32374   23.63094    7.12210    0.57627    2.87961    1.90607   76.94774
  169.75955   18.44432   84.87217   43.61486   24.32102    7.28001    0.67085    2.89317    1.90181   76.76660
  169.91195   18.46391   85.83271   45.45078   25.31110    6.91448    0.55702    2.87635    1.91299   76.67794
  170.06435   18.55433   81.83358   49.17288   26.53602    7.17466    0.56844    2.92006    1.95642   76.98296
  170.21675   18.68009   79.65158   53.07573   28.38849    7.33831    0.61295    3.00424    1.98693   77.46427
  170.36915   18.91212   83.95943   60.61128   30.94877    5.84143    0.67946    3.01706    1.94762   78.02266
  170.52155   19.10301   84.29071   65.25893   32.27375    4.53677    0.70988    2.95162    1.87931   78.44670
  170.67395   19.23337   80.32092   69.91685   33.49574    4.01119    0.72879    2.86739    1.82281   78.77533
  170.82635   19.28145   77.55626   72.85776   33.70812    4.04401    0.63304    2.82698    1.82031   79.01777
  170.97875   19.29734   73.29582   76.27380   34.82978    4.16109    0.59907    2.78934    1.83319   79.35560
  171.13115   19.30070   70.71846   78.58737   35.42850    4.12380    0.60526    2.76330    1.82177   79.66520
  171.28355   19.31858   72.06409   80.95169   35.83250    3.92950    0.70539    2.76129    1.77183   80.04870
  171.43595   19.33587   75.43621   81.81598   36.25951    3.96752    0.64221    2.80532    1.75571   80.29077
  171.58835   19.34850   80.09996   81.88323   35.91509    4.02267    0.52337    2.85464    1.78862   80.20097
  171.74075   19.35205   90.94916   80.87458   35.36894    4.52040    0.67512    2.86760    1.89281   79.90289
  171.89315   19.35819   98.47169   80.05988   35.20100    5.00431    0.72874    2.81928    1.92252   79.79221
  172.04555   19.37715  107.45657   79.00598   34.22346    5.08934    0.71626    2.72931    1.87441   79.75949
  172.19795   19.36539  110.59705   79.06318   34.58957    4.54493    0.68479    2.71338    1.82968   79.62545
