~Version ---------------------------------------------------
VERS.   2.0 : CWLS log ASCII Standard -VERSION 2.0
WRAP.    NO : One line per depth step
DLM . SPACE : Column Data Section Delimiter
~Well ------------------------------------------------------
STRT.m          150.09995 : START DEPTH
STOP.m 3310.4187500000016 : STOP DEPTH
STEP.m 0.1524000000000001 : STEP
NULL.             -999.25 : NULL VALUE
COMP.                     : COMPANY
WELL.                  W1 : WELL
FLD .                     : FIELD
LOC .                     : LOCATION
PROV.                     : PROVINCE
CNTY.                     : COUNTY
STAT.                     : STATE
CTRY.                     : COUNTRY
SRVC.                     : SERVICE COMPANY
DATE.                     : DATE
UWI .                     : UNIQUE WELL ID
API .                     : API NUMBER
~Curve Information -----------------------------------------
DEPT.m      : 
CAL .UNKWN  : 
GR  .GAPI   : 
LLD .OHMM   : 
LLS .OHMM   : 
MSFL.UNKWN  : 
NPHI.V/V    : 
PE  .UNKWN  : 
RHOB.G/C3   : 
SP  .UNKWN  : 
~Params ----------------------------------------------------
~Other -----------------------------------------------------
This las is generated by Laggy, the splicing module developed by Ameyem Geosolutions exclusively for Cairn Vedanta...
~ASCII -----------------------------------------------------
# ...
  995.61515   15.75461   73.35555   85.85800   49.37083   10.83467    0.39811    3.08353    2.14568   74.44825
  995.76755   15.81177   80.30565   86.21911   49.27526    9.56848    0.47054    3.14351    2.15471   74.92462
  995.91995   15.83208   79.56760   86.39986   49.17452    8.54956    0.50805    3.14503    2.15518   74.58932
  996.07235   15.85650   70.54786   85.92346   48.90335    7.96743    0.46586    3.05294    2.13920   75.21468
  996.22475   15.86194   66.52716   85.06080   48.51305    7.70694    0.55822    3.00280    2.12268   75.73095
  996.37715   15.74093   66.15848   82.40728   47.37303    7.20293    0.53861    3.02312    2.10699   75.63691
  996.52955   15.53163   65.53609   80.49320   46.59999    6.67635    0.43996    3.06541    2.10186   76.79374
  996.68195   15.05945   62.55020   77.99220   45.59969    5.97499    0.46810    3.07098    2.09561   77.09469
  996.83435   14.67115   60.88924   76.63698   45.05793    5.61872    0.43653    3.05533    2.09378   77.13398
  996.98675   14.36545   62.60914   76.02620   44.89505    5.48483    0.35979    3.07053    2.09968   77.38251
  997.13915   14.13160   68.88891   75.80136   44.83928    6.94553    0.31727    3.10110    2.11784   76.96968
  997.29155   14.10684   69.33915   75.99789   44.81880    8.90300    0.33889    3.10535    2.12466   77.96743
  997.44395   14.11928   74.42494   76.50350   44.75091   12.64273    0.31250    3.11038    2.12525   77.46381
  997.59635   14.12683   77.57545   76.63250   44.63563   13.71100    0.28399    3.07872    2.13032   76.94135
  997.74875   14.13273   74.09073   76.73843   44.38530   14.16381    0.26870    3.05051    2.14534   77.33725
  997.90115   14.13615   72.28547   76.69241   44.23305   14.02122    0.24789    3.05800    2.14959   76.83515
  998.05355   14.14110   71.07028   76.42907   43.84490   13.88606    0.24825    3.02100    2.14756   76.67336
  998.20595   14.14115   71.22351   76.20572   43.36020   13.94168    0.24716    2.97831    2.14101   77.60453
  998.35835   14.13395   71.36360   76.43595   43.28212   12.99909    0.25424    2.89166    2.13108   77.10914
  998.51075   14.12880   74.98103   76.93908   43.41946   12.25286    0.26030    2.82673    2.12776   76.81141
  998.66315   14.12750   83.67792   78.40231   44.06053   11.51762    0.25295    2.76857    2.11901   76.91258
  998.81555   14.15096   83.89528   80.13124   44.88991   10.98522    0.25108    2.76411    2.11128   76.49196
  998.96795   14.30771   79.61912   82.29834   45.90006    9.56620    0.26100    2.82336    2.11305   76.87480
  999.12035   14.50843   78.11027   83.72148   46.58224    8.07401    0.27222    2.90647    2.12248   77.50224
  999.27275   14.71414   79.25817   83.49022   46.31761    6.73342    0.27426    3.06153    2.12863   77.70808
  999.42515   14.80348   82.79833   82.18140   45.60197    6.18641    0.28626    3.15677    2.12492   77.28755
  999.57755   14.81698   88.77208   79.29810   44.05629    5.86642    0.32241    3.17465    2.12791   77.02551
  999.72995   14.82074   93.39103   77.31178   43.04386    5.88180    0.33095    3.18374    2.14024   77.20945
  999.88235   14.83032  100.72808   75.48336   42.26002    6.94199    0.31166    3.24734    2.16114   77.16778
 1000.03475   14.85750  102.30896   74.62258   42.03987    8.37764    0.29078    3.33648    2.17243   77.39764
 1000.18715   14.91980   97.98961   74.37074   42.00481   10.34814    0.27862    3.44142    2.17539   76.13768
 1000.33955   15.09357   82.98096   75.06248   42.58366   13.19169    0.27459    3.44092    2.16651   75.50896
 1000.49195   15.18472   75.97241   76.06630   43.16480   13.99082    0.27937    3.30637    2.15748   76.20187
 1000.64435   15.23480   73.92262   79.07852   44.66041   13.51095    0.27225    3.03458    2.13840   75.18250
 1000.79675   15.24020   74.41012   81.31526   45.69707   12.74055    0.27032    2.88525    2.13832   74.90171
 1000.94915   15.26068   75.87907   85.17770   47.46574   11.72920    0.26188    2.76354    2.14883   75.60975
 1001.10155   15.29514   74.03089   87.26368   48.51036   11.24262    0.28506    2.78674    2.14928   75.45796
 1001.25395   15.45200   70.57541   88.32655   49.49439   10.22971    0.28721    3.10307    2.14976   75.71535
 1001.40635   15.58539   69.03271   87.06668   49.38581    9.65976    0.29102    3.40905    2.14971   77.10722
 1001.55875   15.75897   63.71702   79.58299   46.77013    9.36616    0.34163    3.57379    2.14602   76.70529
 1001.71115   15.81978   62.96496   71.95454   43.38602    9.21703    0.38156    3.44840    2.14593   76.53115
 1001.86355   15.86692   63.44929   62.44243   38.28032    9.30125    0.37048    3.25713    2.14961   76.85100
 1002.01595   15.89361   64.39668   56.56110   34.68350    9.30321    0.38287    3.14713    2.15136   77.40102
 1002.16835   15.90768   66.03945   54.96700   33.46352    6.68659    0.47801    3.04866    2.14166   79.10615
 1002.32075   15.91732   66.97459   57.08802   34.93780    5.99366    0.47896    2.98822    2.13630   80.19593
 1002.47315   15.93075   62.90264   64.23254   39.43293    7.22243    0.43613    2.95453    2.14446   79.23075
 1002.62555   15.92592   57.89516   72.15234   43.92411    7.64982    0.44288    2.88731    2.14241   77.90579
 1002.77795   15.79348   55.85526   81.59186   48.59642    6.98873    0.41098    2.74084    2.11566   77.74348
 1002.93035   15.60766   54.98309   85.98482   50.59356    6.83188    0.44724    2.68972    2.09884   77.00718
 1003.08275   15.33183   57.18192   87.35945   51.25627    7.03314    0.41338    2.81951    2.09010   76.98335
 1003.23515   15.16417   60.85196   87.94191   51.57238    6.92636    0.40694    2.94320    2.08850   77.77706
 1003.38755   15.04042   62.65240   88.47182   51.78946    6.69926    0.45035    2.98414    2.09572   77.13888
 1003.53995   14.88576   65.70532   90.48274   52.63966    6.32630    0.34124    2.93203    2.12529   77.94240
 1003.69235   14.84322   70.49173   92.44360   53.55782    6.58526    0.30167    2.97789    2.14238   77.91829
 1003.84475   14.85192   72.50880   96.15385   55.43355    8.74709    0.30335    3.11150    2.14158   77.84463
 1003.99715   14.88997   71.99593   98.04047   56.43225   10.75622    0.28673    3.09172    2.13269   78.85150
 1004.14955   14.97989   74.28869   97.98296   56.50833   13.38113    0.26656    2.97346    2.12086   78.68678
 1004.30195   15.01611   74.90093   96.56130   55.79131   13.56846    0.26023    2.91423    2.11615   78.26644
 1004.45435   15.02630   77.20893   91.53394   53.09876   12.40826    0.25560    2.94721    2.10444   78.87547
 1004.60675   15.02630   77.89146   89.73295   52.26249   12.23198    0.27546    3.04383    2.09375   78.49152
 1004.75915   15.02630   77.17093   88.45841   51.83917   11.09590    0.26877    3.05027    2.08009   79.16964
 1004.91155   15.02630   76.49631   88.56827   52.06368   10.05915    0.27187    2.94194    2.06874   80.50649
 1005.06395   15.02726   73.09972   89.20712   52.54899    9.75400    0.26043    2.81638    2.05689   80.62296
 1005.21635   15.02780   69.56180   89.73208   52.79746   10.81065    0.27479    2.73704    2.05480   80.29958
 1005.36875   15.02766   71.75508   90.34164   53.14086   12.10400    0.28795    2.65483    2.05483   80.09850
 1005.52115   15.02725   73.35914   90.97152   53.53864   12.64295    0.28111    2.65173    2.05566   80.01489
 1005.67355   15.02971   70.31040   91.72072   53.97775   12.52275    0.27012    2.78312    2.05303   79.63542
 1005.82595   15.03154   67.58639   91.92264   54.10333   12.49672    0.26143    2.85486    2.05252   79.65715
 1005.97835   15.03626   66.91534   90.34716   53.34062   12.48601    0.26269    2.81303    2.06287   79.00954
 1006.13075   15.04561   69.04078   88.88897   52.55717   12.57285    0.25963    2.79127    2.07346   77.94964
 1006.28315   15.07208   71.94672   86.95338   51.48845   12.62773    0.25837    2.83183    2.09122   77.79543
 1006.43555   15.08850   71.68903   86.62728   51.38025   12.26614    0.25673    2.88663    2.10503   77.15740
 1006.58795   15.09681   70.22876   87.60027   51.94941   12.21332    0.26418    2.92489    2.11213   77.55707
