~Version ---------------------------------------------------
VERS.   2.0 : CWLS log ASCII Standard -VERSION 2.0
WRAP.    NO : One line per depth step
DLM . SPACE : Column Data Section Delimiter
~Well ------------------------------------------------------
STRT.m          150.09995 : START DEPTH
STOP.m 3310.4187500000016 : STOP DEPTH
STEP.m 0.1524000000000001 : STEP
NULL.             -999.25 : NULL VALUE
COMP.                     : COMPANY
WELL.                  W1 : WELL
FLD .                     : FIELD
LOC .                     : LOCATION
PROV.                     : PROVINCE
CNTY.                     : COUNTY
STAT.                     : STATE
CTRY.                     : COUNTRY
SRVC.                     : SERVICE COMPANY
DATE.                     : DATE
UWI .                     : UNIQUE WELL ID
API .                     : API NUMBER
~Curve Information -----------------------------------------
DEPT.m      : 
CAL .UNKWN  : 
GR  .GAPI   : 
LLD .OHMM   : 
LLS .OHMM   : 
MSFL.UNKWN  : 
NPHI.V/V    : 
PE  .UNKWN  : 
RHOB.G/C3   : 
SP  .UNKWN  : 
~Params ----------------------------------------------------
~Other -----------------------------------------------------
This las is generated by Laggy, the splicing module developed by Ameyem Geosolutions exclusively for Cairn Vedanta...
~ASCII -----------------------------------------------------
# ...
 1206.99395   16.73210   67.79687   16.37288   12.38968    6.62379    0.19164    2.65369    2.30833   71.94563
 1207.14635   16.73160   78.37969   16.40790   12.43825    6.44183    0.20498    2.55150    2.31426   71.65243
 1207.29875   16.73160   83.42395   16.60806   12.57954    6.51704    0.20760    2.57101    2.31045   71.21808
 1207.45115   16.73160   77.86304   17.19065   13.05909    7.06139    0.20341    2.84658    2.30434   71.58871
 1207.60355   16.73161   71.95578   17.55312   13.35034    7.29855    0.21789    3.03038    2.30554   72.41867
 1207.75595   16.73190   65.18321   17.82473   13.52385    7.35806    0.23419    2.98726    2.29734   71.77971
 1207.90835   16.73189   65.04426   17.76286   13.45797    7.26133    0.21724    2.80753    2.28595   71.40134
 1208.06075   16.73180   69.24483   17.40004   13.19380    7.04894    0.20552    2.65101    2.26933   70.99489
 1208.21315   16.73180   70.13737   17.13241   13.01277    6.92040    0.20410    2.63862    2.26377   71.18583
 1208.36555   16.73187   70.68818   16.83099   12.76425    6.80793    0.19506    2.56513    2.27659   71.49621
 1208.51795   16.73215   70.60875   16.67198   12.64057    6.74255    0.19467    2.46858    2.29479   71.34012
 1208.67035   16.73303   70.64329   16.73639   12.70431    6.78580    0.19778    2.43172    2.30222   71.50605
 1208.82275   16.73391   72.81933   16.84113   12.83774    6.96297    0.19617    2.47873    2.29421   71.44817
 1208.97515   16.73528   71.15840   16.84070   12.87109    7.17802    0.19769    2.58453    2.27432   71.73575
 1209.12755   16.73451   68.49761   16.60501   12.66205    7.25367    0.20204    2.64616    2.26478   72.31811
 1209.27995   16.73248   66.08548   16.02748   12.11558    7.10450    0.19997    2.71216    2.26242   72.17906
 1209.43235   16.73160   66.81184   15.63293   11.73369    6.99808    0.20709    2.72413    2.26110   72.29809
 1209.58475   16.73160   85.73255   15.36787   11.42190    6.58177    0.19921    2.62055    2.26028   72.35058
 1209.73715   16.73160  103.07068   15.36131   11.43410    6.50732    0.20271    2.50904    2.26135   72.96170
 1209.88955   16.73160  110.80365   15.48643   11.63928    6.54030    0.20115    2.48489    2.25909   73.11351
 1210.04195   16.73160  104.73395   15.65720   11.90740    6.90395    0.20531    2.81610    2.27795   73.02248
 1210.19435   16.73160   94.93195   15.66238   11.98597    6.86449    0.21371    3.11771    2.29757   73.33575
 1210.34675   16.73160   81.42647   15.50547   11.94057    6.97249    0.21295    3.22971    2.30902   73.65848
 1210.49915   16.73160   76.64654   15.29744   11.84418    7.01678    0.21021    3.08299    2.30524   73.57417
 1210.65155   16.73160   72.45661   14.99894   11.61374    6.95443    0.20537    2.93728    2.30365   73.67517
 1210.80395   16.73160   73.71381   14.80990   11.47770    6.80925    0.20195    2.93499    2.30581   73.93523
 1210.95635   16.73160   77.01053   14.48257   11.24245    6.45387    0.19926    2.92368    2.30620   73.89160
 1211.10875   16.73160   77.55824   14.25718   11.07705    6.26131    0.22194    2.95087    2.30368   74.14383
 1211.26115   16.73160   75.86542   13.93484   10.80584    5.95681    0.22272    3.00467    2.29749   74.47301
 1211.41355   16.73160   73.38979   13.78999   10.67367    5.87006    0.22824    3.00113    2.29264   74.32015
 1211.56595   16.73160   76.56020   13.71176   10.59438    6.12918    0.23237    2.96268    2.27987   74.32341
 1211.71835   16.73160   84.25138   13.74881   10.63607    6.33485    0.22312    2.91258    2.26578   74.45936
 1211.87075   16.73160   88.79164   13.89801   10.75952    6.31420    0.23317    2.85159    2.26269   74.19414
 1212.02315   16.73160   88.43051   14.08937   10.86134    6.17555    0.23788    2.82232    2.27030   74.42982
 1212.17555   16.73160   83.24067   14.35407   11.02543    6.29822    0.24254    2.83123    2.28367   74.03813
 1212.32795   16.73160   82.31930   14.64009   11.22089    6.44862    0.23085    2.85358    2.28720   73.70861
 1212.48035   16.73160   82.74875   15.10720   11.55031    6.57854    0.22894    2.84967    2.27523   73.34278
 1212.63275   16.73160   80.28470   15.48127   11.79365    6.59565    0.23526    2.82125    2.26314   73.33021
 1212.78515   16.73160   83.59870   15.78181   11.96538    6.82291    0.21990    2.83653    2.26844   73.27516
 1212.93755   16.73160   82.58290   15.90278   11.99805    6.86751    0.23354    2.92114    2.28344   72.94037
 1213.08995   16.73160   76.75558   15.87264   11.98440    7.20017    0.24323    3.01149    2.29599   72.70078
 1213.24235   16.73160   70.37072   15.74626   11.83538    7.14138    0.22976    3.02258    2.31026   72.76451
 1213.39475   16.73160   67.79127   15.67265   11.74832    7.25749    0.23459    3.00595    2.31103   72.48206
 1213.54715   16.73160   60.37585   15.67427   11.69859    6.99782    0.23460    3.02459    2.31720   73.04485
 1213.69955   16.73160   56.15535   15.79851   11.80097    7.06710    0.22796    3.00858    2.32548   73.21727
 1213.85195   16.73211   54.76242   16.00762   11.98048    7.64120    0.23430    2.93117    2.31150   72.60949
 1214.00435   16.73340   55.06747   16.12413   12.07846    7.89431    0.21787    2.87951    2.29900   72.55863
 1214.15675   16.73330   60.04352   16.11339   12.06523    7.54935    0.24454    2.78297    2.29247   72.48326
 1214.30915   16.73331   65.94845   16.01011   11.99650    6.72524    0.23947    2.78260    2.29624   72.36354
 1214.46155   16.73377   68.55494   15.87437   11.87585    6.73658    0.21462    2.85568    2.30481   72.83135
 1214.61395   16.73543   65.35719   15.83768   11.84975    6.81178    0.23299    2.85959    2.29694   72.48415
 1214.76635   16.73720   61.59832   15.91163   11.92278    6.90369    0.25975    2.81409    2.27872   72.51832
 1214.91875   16.73810   61.29778   16.05385   11.98728    6.99528    0.26797    2.78384    2.27174   72.30574
 1215.07115   16.73810   64.43027   16.16684   12.02203    7.13150    0.25657    2.75682    2.27159   72.20161
 1215.22355   16.73810   64.77513   16.22576   12.03323    7.26671    0.27072    2.74253    2.26357   72.36549
 1215.37595   16.73810   63.34932   16.29227   12.10010    7.36458    0.27452    2.70871    2.24703   71.94354
 1215.52835   16.73850   62.40234   16.34296   12.15303    8.15409    0.25527    2.64259    2.24582   72.22560
 1215.68075   16.74070   61.12165   16.46578   12.26108    8.52240    0.25808    2.57530    2.25021   72.22242
 1215.83315   16.74123   62.16635   16.54370   12.32155    8.25170    0.25523    2.59930    2.25140   72.09073
 1215.98555   16.73982   61.40786   16.62686   12.39785    7.37390    0.25789    2.68188    2.26823   72.22824
 1216.13795   16.73862   60.12246   16.65338   12.42572    7.12108    0.27417    2.67325    2.28390   72.12614
 1216.29035   16.73832   61.42186   16.66023   12.42563    6.99379    0.25654    2.61703    2.28596   72.12461
 1216.44275   16.73487   68.29009   16.62811   12.40962    6.95958    0.24992    2.56069    2.25877   72.32433
 1216.59515   16.73219   69.49495   16.59914   12.39830    7.11290    0.27196    2.54634    2.24789   72.50243
 1216.74755   16.73030   68.55491   16.59520   12.38080    7.26968    0.23021    2.61980    2.24810   72.25579
 1216.89995   16.73020   71.79070   16.60180   12.38930    7.21190    0.24833    2.69598    2.25020   72.28350
 1217.05235   16.73020   72.26059   16.69834   12.42077    7.14718    0.28176    2.70210    2.26166   72.17425
 1217.20475   16.73038   67.37397   16.69494   12.43532    7.15065    0.27699    2.70480    2.27982   72.72713
 1217.35715   16.73001   67.85685   16.66749   12.34084    7.27894    0.24773    2.77508    2.30747   72.58459
 1217.50955   16.73017   76.53119   16.58596   12.23744    7.31775    0.25629    2.79770    2.29988   72.57622
 1217.66195   16.73068   89.16703   16.53189   12.18649    7.26737    0.25789    2.81850    2.27639   72.45703
 1217.81435   16.73064   92.06466   16.56492   12.24173    7.16744    0.24237    2.87690    2.27710   72.31789
 1217.96675   16.73090   92.59684   16.65599   12.38118    7.12021    0.23208    3.04063    2.28858   72.45893
