~Version ---------------------------------------------------
VERS.   2.0 : CWLS log ASCII Standard -VERSION 2.0
WRAP.    NO : One line per depth step
DLM . SPACE : Column Data Section Delimiter
~Well ------------------------------------------------------
STRT.m          150.09995 : START DEPTH
STOP.m 3310.4187500000016 : STOP DEPTH
STEP.m 0.1524000000000001 : STEP
NULL.             -999.25 : NULL VALUE
COMP.                     : COMPANY
WELL.                  W1 : WELL
FLD .                     : FIELD
LOC .                     : LOCATION
PROV.                     : PROVINCE
CNTY.                     : COUNTY
STAT.                     : STATE
CTRY.                     : COUNTRY
SRVC.                     : SERVICE COMPANY
DATE.                     : DATE
UWI .                     : UNIQUE WELL ID
API .                     : API NUMBER
~Curve Information -----------------------------------------
DEPT.m      : 
CAL .UNKWN  : 
GR  .GAPI   : 
LLD .OHMM   : 
LLS .OHMM   : 
MSFL.UNKWN  : 
NPHI.V/V    : 
PE  .UNKWN  : 
RHOB.G/C3   : 
SP  .UNKWN  : 
~Params ----------------------------------------------------
~Other -----------------------------------------------------
This las is generated by Laggy, the splicing module developed by Ameyem Geosolutions exclusively for Cairn Vedanta...
~ASCII -----------------------------------------------------
# ...
 1830.00515   17.11328   65.49970   39.00634   31.89785   10.62567    0.33642    2.87328    2.23656   55.21782
 1830.15755   17.09327   65.37733   38.82135   31.57604   10.58952    0.36042    2.84221    2.24366   55.02890
 1830.30995   17.10948   65.86262   38.68192   31.43258   10.48563    0.36192    2.84399    2.24580   54.96695
 1830.46235   17.13418   66.69707   38.77745   31.38168   10.54710    0.38185    2.85960    2.24953   55.36904
 1830.61475   17.16440   66.75079   39.17415   31.57313   10.89169    0.35833    2.86529    2.24950   55.38271
 1830.76715   17.20487   62.77222   39.76192   31.97310   10.99866    0.33768    2.85928    2.24256   55.63832
 1830.91955   17.23698   59.04724   40.29108   32.35300   10.98925    0.36521    2.84305    2.23097   55.97154
 1831.07195   17.26644   56.00812   40.61088   32.62541   11.16846    0.40458    2.79962    2.21938   56.41708
 1831.22435   17.28135   54.61887   40.59314   32.56245   11.29597    0.39852    2.80689    2.21855   56.50163
 1831.37675   17.28262   57.33918   39.90550   32.03009   11.24617    0.40159    2.87286    2.21877   56.58157
 1831.52915   17.28196   59.60814   39.18877   31.40456   10.81357    0.41058    2.87392    2.21553   56.63891
 1831.68155   17.28316   58.69267   38.12398   30.63065   10.63688    0.41305    2.87035    2.21477   56.33374
 1831.83395   17.28484   57.62403   37.52911   30.12600   10.89491    0.38522    2.89907    2.21408   55.67494
 1831.98635   17.28760   59.91948   37.15707   29.83267   11.02191    0.38760    2.91139    2.20922   55.43843
 1832.13875   17.29220   61.69088   36.79951   29.47437   10.44926    0.44607    2.89329    2.20441   55.15264
 1832.29115   17.29722   59.80466   36.83728   29.54412    9.92300    0.49751    2.90385    2.21127   55.15975
 1832.44355   17.30804   58.44545   37.02781   29.67523   10.06064    0.48404    2.92073    2.22911   54.98215
 1832.59595   17.31157   57.30025   37.22136   29.86716   10.33714    0.40847    2.90719    2.23504   54.92556
 1832.74835   17.30262   56.27246   37.40998   30.05603   10.43422    0.53651    2.88685    2.23371   55.84188
 1832.90075   17.29406   58.37626   37.39441   30.12506   10.30711    0.46493    2.89360    2.22395   56.73497
 1833.05315   17.28954   63.07058   37.09462   29.81899   10.02923    0.39993    2.85926    2.20262   56.78025
 1833.20555   17.28927   62.41226   36.76168   29.53662    9.94271    0.40244    2.78882    2.19942   56.97260
 1833.35795   17.28988   61.06131   35.70940   28.69467    9.75978    0.44179    2.69416    2.20214   56.89968
 1833.51035   17.28794   62.77492   35.06043   28.23270    9.58350    0.45623    2.71634    2.20452   56.97983
 1833.66275   17.28382   65.74214   34.24829   27.61966    9.38164    0.44208    2.87444    2.21369   57.56394
 1833.81515   17.28252   68.56395   33.88053   27.38025    9.38413    0.38735    2.99390    2.22314   58.40299
 1833.96755   17.28325   70.56422   34.07603   27.43768    9.34328    0.46431    2.95940    2.23147   58.05085
 1834.11995   17.28592   70.08108   34.61796   27.90232    9.32472    0.44541    2.88432    2.23706   57.14940
 1834.27235   17.29144   70.41259   35.55251   28.54485    9.37868    0.47364    2.86095    2.24231   56.84328
 1834.42475   17.29924   72.75067   36.34876   29.16395    9.53844    0.44143    2.90402    2.23996   57.45503
 1834.57715   17.30880   74.39184   36.99079   29.55600    9.68183    0.48391    2.91887    2.23359   59.05686
 1834.72955   17.31332   71.08791   37.18188   29.68108    9.70491    0.47970    2.85920    2.23443   60.35747
 1834.88195   17.31434   63.98841   36.92877   29.43704    9.59110    0.42066    2.81585    2.23427   61.82650
 1835.03435   17.32262   62.81052   36.54734   29.22075    9.46373    0.44543    2.82279    2.23409   62.77065
 1835.18675   17.33942   63.34498   36.13253   28.89445    9.37577    0.42591    2.82828    2.23431   62.88610
 1835.33915   17.37850   66.45707   35.50080   28.52664    9.45606    0.42772    2.80521    2.22148   63.34220
 1835.49155   17.41392   68.81401   35.20496   28.31857    9.56549    0.42519    2.76897    2.21042   63.40101
 1835.64395   17.47019   66.49946   34.80494   28.05743    9.66278    0.35222    2.69166    2.20628   63.34127
 1835.79635   17.49160   65.11851   34.59594   27.86287    9.73325    0.33962    2.66953    2.20872   63.45574
 1835.94875   17.51224   69.43813   34.23559   27.68057    9.92152    0.37025    2.73316    2.22794   63.38017
 1836.10115   17.53331   71.51921   34.05558   27.60554    9.99220    0.37215    2.84083    2.25059   63.54738
 1836.25355   17.61847   69.19343   33.81486   27.46890   10.16888    0.37713    3.07594    2.27746   63.30576
 1836.40595   17.72031   68.93121   33.67511   27.41501   10.39960    0.40971    3.19502    2.27779   63.50712
 1836.55835   17.93723   70.86167   33.48299   27.29671   10.60952    0.43631    3.24894    2.26323   63.71733
 1836.71075   18.06624   73.61322   33.34541   27.21636   10.38507    0.43113    3.20559    2.26331   63.53599
 1836.86315   18.17188   79.04521   33.12165   27.04889    9.65885    0.41332    3.22225    2.26560   62.23411
 1837.01555   18.19911   84.91951   32.99087   26.93524    9.00681    0.34329    3.33067    2.24797   61.52814
 1837.16795   18.08888   90.73038   32.94252   26.90114    8.73650    0.36943    3.37825    2.22209   61.59997
 1837.32035   17.96919   93.88721   33.02087   27.01262    8.97303    0.36728    3.29125    2.21877   61.61053
 1837.47275   17.88546   98.65265   33.10643   27.10724    9.55738    0.36117    3.10913    2.22606   62.26852
 1837.62515   17.87779  100.39051   33.09523   27.16322   10.01928    0.37772    3.02409    2.23595   62.81016
 1837.77755   17.90009   99.84872   32.89735   26.95172    9.93414    0.35183    3.06279    2.25841   63.14426
 1837.92995   17.91608   99.19183   32.74842   26.82620    9.66570    0.35188    3.09217    2.25859   63.01836
 1838.08235   17.91019   97.14384   32.63273   26.62866    9.46183    0.36928    2.95082    2.23743   64.07310
 1838.23475   17.89515   95.46200   32.95106   26.84654    9.70122    0.33189    2.81096    2.22909   66.75367
 1838.38715   17.88213   96.08387   33.60304   27.26724   10.00449    0.34566    2.75594    2.22011    -999.25
 1838.53955   17.87367  101.59170   34.90784   28.37159   10.20351    0.33970    2.72732    2.18159    -999.25
 1838.69195   17.84444  102.84542   35.70696   28.98100    9.14566    0.30945    2.68514    2.16553    -999.25
 1838.84435   17.64987  100.44305   36.29228   29.52210    8.73751    0.31283    2.62165    2.19277    -999.25
 1838.99675   17.52516   99.60778   35.99271   29.12040    9.02732    0.29795    2.57728    2.20990    -999.25
 1839.14915   17.47717   98.26901   35.39681   28.66423   10.64460    0.28685    2.48704    2.20050    -999.25
 1839.30155   17.48448   97.04715   35.02150   28.27315   10.46241    0.29860    2.49294    2.19495    -999.25
 1839.45395   17.51262   97.79839   35.07625   28.56493   10.56789    0.29063    2.59254    2.20256    -999.25
 1839.60635   17.55084   98.71671   35.51634   28.83097   10.41217    0.29938    2.61530    2.21515    -999.25
 1839.75875   17.60571   99.82199   36.05733   29.41318    9.72019    0.30608    2.62674    2.22379    -999.25
 1839.91115   17.60344   99.36657   36.30658   29.49424    9.10844    0.32417    2.66115    2.21790    -999.25
 1840.06355   17.55800   97.71437   36.37902   29.69279    8.95261    0.31351    2.69018    2.21764    -999.25
 1840.21595   17.51371   97.14346   36.33685   29.65582    8.93042    0.28616    2.68680    2.22413    -999.25
 1840.36835   17.45472   97.62467   35.99782   29.50504    8.82570    0.29407    2.65713    2.22840    -999.25
 1840.52075   17.39640   97.91351   35.56487   29.16006    8.56754    0.30613    2.64769    2.22619    -999.25
 1840.67315   17.28553   96.13798   34.72357   28.57340    8.28559    0.30556    2.77359    2.22233    -999.25
 1840.82555   17.19429   94.06594   33.79093   27.82036    8.11644    0.28497    2.94114    2.22129    -999.25
 1840.97795   17.12691   94.73718   33.14194   27.44282    7.91995    0.29379    3.07907    2.21455    -999.25
