~Version ---------------------------------------------------
VERS.   2.0 : CWLS log ASCII Standard -VERSION 2.0
WRAP.    NO : One line per depth step
DLM . SPACE : Column Data Section Delimiter
~Well ------------------------------------------------------
STRT.m          150.09995 : START DEPTH
STOP.m 3310.4187500000016 : STOP DEPTH
STEP.m 0.1524000000000001 : STEP
NULL.             -999.25 : NULL VALUE
COMP.                     : COMPANY
WELL.                  W1 : WELL
FLD .                     : FIELD
LOC .                     : LOCATION
PROV.                     : PROVINCE
CNTY.                     : COUNTY
STAT.                     : STATE
CTRY.                     : COUNTRY
SRVC.                     : SERVICE COMPANY
DATE.                     : DATE
UWI .                     : UNIQUE WELL ID
API .                     : API NUMBER
~Curve Information -----------------------------------------
DEPT.m      : 
CAL .UNKWN  : 
GR  .GAPI   : 
LLD .OHMM   : 
LLS .OHMM   : 
MSFL.UNKWN  : 
NPHI.V/V    : 
PE  .UNKWN  : 
RHOB.G/C3   : 
SP  .UNKWN  : 
~Params ----------------------------------------------------
~Other -----------------------------------------------------
This las is generated by Laggy, the splicing module developed by Ameyem Geosolutions exclusively for Cairn Vedanta...
~ASCII -----------------------------------------------------
# ...
 2675.52035   11.75032   58.24122   16.09886   14.09693    7.46889    0.27101    4.36246    2.33906   -2.32951
 2675.67275   11.75120   56.37715   16.17301   14.13246    8.23353    0.26294    4.42640    2.31886   -2.24248
 2675.82515   11.75123   57.50793   16.18934   14.13075    8.28388    0.25007    4.51717    2.30149   -2.32877
 2675.97755   11.75368   59.92104   16.23366   14.15175    8.20471    0.26292    4.53952    2.27007   -2.55363
 2676.12995   11.75538   62.02105   16.22211   14.13399    8.24022    0.25104    4.50766    2.24656   -2.67928
 2676.28235   11.75312   62.26275   16.11953   14.02503    8.49197    0.24597    4.44237    2.24382   -2.63220
 2676.43475   11.75170   60.88065   15.93818   13.83730    8.49233    0.24522    4.37591    2.25267   -2.59172
 2676.58715   11.75362   59.08252   15.77077   13.66174    8.19887    0.25140    4.32365    2.25744   -2.53370
 2676.73955   11.75618   58.47900   15.54014   13.44508    7.63795    0.26765    4.12437    2.25576   -2.64837
 2676.89195   11.75563   58.69416   15.46588   13.37911    7.46808    0.25883    3.92883    2.25333   -2.75148
 2677.04435   11.77493   55.32414   15.50351   13.41059    7.62730    0.24218    3.67312    2.24981   -2.80141
 2677.19675   11.80764   53.54475   15.55899   13.46025    7.74032    0.23691    3.54918    2.24753   -2.63395
 2677.34915   11.86196   55.21673   15.64172   13.52816    8.20984    0.25292    3.36768    2.24127   -2.42758
 2677.50155   11.87836   56.38979   15.65029   13.53363    8.51895    0.24871    3.32131    2.23861   -2.28061
 2677.65395   11.88339   54.65300   15.63212   13.51070    8.70373    0.25121    3.42612    2.23953   -2.19276
 2677.80635   11.88968   54.17194   15.64212   13.52434    8.82993    0.24237    3.50033    2.24193   -2.17885
 2677.95875   11.91109   58.91802   15.69234   13.59351    9.26959    0.24660    3.46271    2.24632   -2.23668
 2678.11115   11.92760   62.32536   15.73426   13.65100    9.21122    0.24342    3.48139    2.24586   -2.24573
 2678.26355   11.94453   62.19160   15.81595   13.74508    8.35719    0.25429    3.64228    2.24035   -2.20530
 2678.41595   11.95211   58.52615   15.88727   13.81462    7.90433    0.24910    3.67302    2.23312   -2.34946
 2678.56835   11.95601   56.77461   16.01019   13.92869    8.02531    0.25390    3.52578    2.22762   -2.33961
 2678.72075   11.95954   56.73974   16.10238   14.02683    8.30112    0.25477    3.49958    2.23418   -2.37724
 2678.87315   11.96796   57.47274   16.12207   14.05354    7.78834    0.25008    3.62157    2.24459   -2.09270
 2679.02555   11.97280   58.58101   16.01965   13.96296    7.42039    0.25036    3.70456    2.24329   -1.83096
 2679.17795   11.96889   58.07717   15.68765   13.66979    7.22070    0.24512    3.72272    2.24233   -1.31765
 2679.33035   11.95804   61.03633   15.39815   13.41625    7.42633    0.25490    3.70623    2.24772   -1.17997
 2679.48275   11.94701   65.10622   15.11497   13.16530    7.74952    0.24806    3.68655    2.25448   -1.79873
 2679.63515   11.94616   65.49677   14.98646   13.04502    7.86152    0.25991    3.64954    2.25424   -2.13233
 2679.78755   11.94359   67.53673   14.89054   12.95381    7.78181    0.26180    3.61374    2.25440   -2.39137
 2679.93995   11.92277   66.08612   14.76006   12.84390    8.09913    0.26281    3.67104    2.26716   -2.14983
 2680.09235   11.90675   61.89617   14.61149   12.73083    8.54260    0.26868    3.77108    2.26762   -1.79640
 2680.24475   11.89849   56.72942   14.18972   12.37945    8.64610    0.23992    3.86101    2.26048   -1.33858
 2680.39715   11.89917   56.83265   14.00806   12.23054    8.78698    0.24905    3.87839    2.26558   -1.43667
 2680.54955   11.90758   61.65821   13.99482   12.25987    8.66565    0.27442    3.99527    2.27724   -1.67474
 2680.70195   11.91544   64.01776   14.20866   12.47924    8.11180    0.28088    4.12458    2.28063   -1.98732
 2680.85435   11.91678   65.08517   14.93790   13.20896    7.47007    0.27989    4.13401    2.27283   -2.44117
 2681.00675   11.90990   62.10224   15.32658   13.56701    7.67656    0.26241    3.98559    2.25947   -2.75053
 2681.15915   11.90060   54.11659   15.52186   13.74510    8.56644    0.25455    3.83708    2.24073   -2.96082
 2681.31155   11.89899   52.27124   15.25661   13.49821    8.91434    0.24095    3.81396    2.23249   -2.79560
 2681.46395   11.91179   53.94038   14.59876   12.88950    9.13545    0.23694    3.81381    2.22502   -2.66185
 2681.61635   11.92491   56.25269   14.05866   12.38337    8.71046    0.24625    3.88505    2.21799   -2.61946
 2681.76875   11.93438   54.47236   13.79021   12.14258    8.52006    0.28221    4.04922    2.17819   -2.84504
 2681.92115   11.93814   51.45803   13.76304   12.14663    8.44951    0.28656    4.11927    2.14335   -3.00663
 2682.07355   11.94436   55.18617   13.89550   12.29845    8.61308    0.29068    4.01781    2.16937   -3.06842
 2682.22595   11.94747   57.88101   13.96577   12.36975    8.51350    0.28977    3.87200    2.21120   -2.81003
 2682.37835   11.94614   54.80281   13.93051   12.32946    8.54501    0.26099    3.77343    2.23793   -2.03215
 2682.53075   11.94169   55.91468   13.89397   12.29529    8.48549    0.25218    3.86792    2.24355   -1.46187
 2682.68315   11.93855   63.20001   13.95161   12.37404    7.90188    0.25503    4.10038    2.25001   -1.07359
 2682.83555   11.94430   65.69754   14.08000   12.51458    7.16000    0.25803    4.11662    2.25785   -1.11071
 2682.98795   11.95028   66.56544   14.27544   12.70062    6.71013    0.25961    4.03256    2.26622   -1.17276
 2683.14035   11.94954   69.48908   14.53193   12.91146    6.62351    0.24541    3.96766    2.27564   -1.72315
 2683.29275   11.93662   69.61182   14.62083   12.98037    6.67356    0.26001    3.95336    2.27170   -2.00923
 2683.44515   11.89478   66.31995   14.69334   13.03291    6.46949    0.26456    3.84584    2.25211   -2.14317
 2683.59755   11.87155   63.82843   14.70788   13.04452    6.34451    0.25364    3.77595    2.24253   -2.29633
 2683.74995   11.85131   63.04394   14.71500   13.04630    6.39893    0.25539    3.76724    2.23315   -2.32541
 2683.90235   11.84680   61.32637   14.67704   13.00517    6.41790    0.26555    3.83257    2.23294   -2.36992
 2684.05475   11.83314   58.85117   14.51281   12.84341    6.54410    0.24965    3.88810    2.24782   -2.32029
 2684.20715   11.81562   59.80069   14.37553   12.70587    6.63300    0.23368    3.81630    2.26121   -2.30622
 2684.35955   11.79341   59.15218   14.23819   12.56373    6.59166    0.24273    3.62493    2.26644   -2.20945
 2684.51195   11.78297   58.95877   14.23094   12.54788    6.55453    0.23883    3.54805    2.26188   -2.31589
 2684.66435   11.76498   59.43234   14.40233   12.70649    6.57571    0.24764    3.59636    2.25223   -2.29914
 2684.81675   11.74041   60.32853   14.63861   12.92172    6.44849    0.25165    3.68111    2.24475   -2.50049
 2684.96915   11.70626   63.29672   14.92562   13.16366    6.07174    0.24302    3.59762    2.24534   -2.39348
 2685.12155   11.68106   64.47881   15.10890   13.30953    5.76917    0.23075    3.43156    2.25017   -2.48023
 2685.27395   11.66535   61.36659   15.22002   13.38309    5.52618    0.23851    3.35197    2.24675   -2.54483
 2685.42635   11.66230   59.99074   15.24634   13.39521    5.46160    0.24198    3.40187    2.23462   -2.51598
 2685.57875   11.66183   63.21437   15.25768   13.39202    5.44388    0.23962    3.47206    2.23013   -2.34404
 2685.73115   11.64478   61.99288   15.27314   13.39683    5.83223    0.24286    3.45461    2.23868   -2.39259
 2685.88355   11.64376   60.26651   15.30404   13.41046    5.87640    0.23761    3.40221    2.24485   -2.30829
 2686.03595   11.64092   62.54089   15.33853   13.42927    5.95591    0.23401    3.40627    2.24108   -2.37090
 2686.18835   11.63740   64.14609   15.38201   13.45767    6.02040    0.23366    3.43345    2.23485   -2.36832
 2686.34075   11.64366   63.89211   15.47729   13.52777    6.52156    0.23663    3.42633    2.22455   -2.53204
 2686.49315   11.65162   63.83598   15.54361   13.58966    7.07075    0.22292    3.39863    2.22130   -2.50954
