~Version ---------------------------------------------------
VERS.   2.0 : CWLS log ASCII Standard -VERSION 2.0
WRAP.    NO : One line per depth step
DLM . SPACE : Column Data Section Delimiter
~Well ------------------------------------------------------
STRT.m          150.09995 : START DEPTH
STOP.m 3310.4187500000016 : STOP DEPTH
STEP.m 0.1524000000000001 : STEP
NULL.             -999.25 : NULL VALUE
COMP.                     : COMPANY
WELL.                  W1 : WELL
FLD .                     : FIELD
LOC .                     : LOCATION
PROV.                     : PROVINCE
CNTY.                     : COUNTY
STAT.                     : STATE
CTRY.                     : COUNTRY
SRVC.                     : SERVICE COMPANY
DATE.                     : DATE
UWI .                     : UNIQUE WELL ID
API .                     : API NUMBER
~Curve Information -----------------------------------------
DEPT.m      : 
CAL .UNKWN  : 
GR  .GAPI   : 
LLD .OHMM   : 
LLS .OHMM   : 
MSFL.UNKWN  : 
NPHI.V/V    : 
PE  .UNKWN  : 
RHOB.G/C3   : 
SP  .UNKWN  : 
~Params ----------------------------------------------------
~Other -----------------------------------------------------
This las is generated by Laggy, the splicing module developed by Ameyem Geosolutions exclusively for Cairn Vedanta...
~ASCII -----------------------------------------------------
# ...
 2875.77395   11.71651   58.42759   11.12596    9.94817    7.33968    0.32262    4.92808    2.26128   -1.30732
 2875.92635   11.71910   56.58748   11.08652    9.90060    7.46502    0.32492    4.85259    2.25910   -1.19219
 2876.07875   11.72648   55.52153   11.04564    9.84858    7.78032    0.31496    4.69883    2.24951   -1.22231
 2876.23115   11.73175   58.50590   11.04769    9.85325    7.93021    0.31849    4.69500    2.24158   -1.27939
 2876.38355   11.73596   56.72592   11.06650    9.87422    8.02635    0.32017    4.82870    2.23230   -1.18505
 2876.53595   11.74061   53.45229   11.07315    9.87391    8.15119    0.32755    4.83906    2.22728   -1.08590
 2876.68835   11.74434   52.90876   11.06536    9.86408    8.11456    0.33384    4.76161    2.22274   -0.97109
 2876.84075   11.75311   51.86080   11.06211    9.84399    7.98109    0.32231    4.63479    2.22045   -0.90853
 2876.99315   11.75940   51.57521   11.09334    9.86832    7.96654    0.32675    4.58560    2.21969   -0.87939
 2877.14555   11.77114   57.95418   11.20738    9.96870    8.17884    0.31125    4.53957    2.22019   -0.66863
 2877.29795   11.77781   60.45011   11.27371   10.02621    8.33096    0.31031    4.53528    2.22080   -0.58848
 2877.45035   11.78771   61.08762   11.35347   10.07582    8.50663    0.32358    4.49801    2.21805   -0.71113
 2877.60275   11.79135   60.75966   11.36874   10.07819    8.48337    0.33701    4.42341    2.21987   -0.74427
 2877.75515   11.79662   61.97542   11.31751   10.01617    8.48333    0.31093    4.31525    2.22676   -0.72037
 2877.90755   11.80999   62.70940   11.27546    9.97061    8.48038    0.30356    4.28921    2.22725   -0.61384
 2878.05995   11.83749   59.88004   11.20608    9.89842    8.03204    0.33419    4.38345    2.22954   -0.40086
 2878.21235   11.83957   58.61398   11.19703    9.88656    8.05585    0.32923    4.59664    2.23721   -0.32708
 2878.36475   11.81415   59.74714   11.23357    9.92010    8.45773    0.32359    4.85629    2.24685   -0.55859
 2878.51715   11.79256   60.18820   11.28702    9.96215    8.97868    0.31973    4.88860    2.24783   -0.69002
 2878.66955   11.77899   60.10319   11.29653    9.95350    9.03918    0.30800    4.79977    2.24204   -0.65714
 2878.82195   11.77093   61.44953   11.26173    9.90087    9.07783    0.32001    4.77756    2.24112   -0.42097
 2878.97435   11.75889   62.58998   11.10586    9.77335    8.86460    0.33570    4.74951    2.24443   -0.06330
 2879.12675   11.75161   61.11704   10.93395    9.67170    8.55216    0.33931    4.70146    2.24375   -0.14925
 2879.27915   11.74960   61.30543   10.70912    9.60143    8.36234    0.32968    4.69899    2.23623    0.08820
 2879.43155   11.75033   61.99020   10.58344    9.60204    8.48637    0.33963    4.73491    2.23038    0.28806
 2879.58395   11.75920   62.56769   10.56684    9.74133    8.85177    0.33452    4.69809    2.23330    0.63338
 2879.73635   11.76644   65.16109   10.70788    9.95220    8.98857    0.32361    4.58200    2.24200    1.02378
 2879.88875   11.77276   67.80853   10.84556   10.13178    8.92485    0.31327    4.45144    2.24702    1.66972
 2880.04115   11.78547   65.94643   10.67429   10.00393    8.75112    0.32528    4.42150    2.25180    2.45404
 2880.19355   11.79630   62.74362   10.17658    9.56291    8.57803    0.35448    4.49564    2.26267    2.81811
 2880.34595   11.81697   60.23948    8.17145    7.87792    6.00822    0.33284    4.72091    2.30722    4.63223
 2880.49835   11.79224   62.09667    6.64641    6.53507    4.86837    0.33618    4.89821    2.33690    6.07607
 2880.65075   11.65701   69.49337    4.40448    4.35514    2.94436    0.37388    5.09108    2.34339    8.26813
 2880.80315   11.58110   70.79219    3.61696    3.47422    2.22987    0.42644    4.93091    2.31170    9.14120
 2880.95555   11.59924   74.76151    3.51798    3.39670    1.81231    0.43858    4.11243    2.21676   10.79437
 2881.10795   11.64708   76.85384    4.04760    4.03728    2.72434    0.44941    3.73347    2.17764   11.26860
 2881.26035   11.69750   74.65649    5.79488    6.03385    5.23306    0.40566    3.94302    2.19976    9.73625
 2881.41275   11.72240   73.29151    7.34047    7.53494    6.84051    0.37480    4.31401    2.22870    7.66214
 2881.56515   11.76722   67.68800    9.80540    9.52440    6.88074    0.36280    4.64926    2.23091    5.03023
 2881.71755   11.80297   61.63827   11.23431   10.60266    7.30148    0.32268    4.77155    2.21776    3.43255
 2881.86995   11.82375   59.82522   11.24500   10.60453    7.68409    0.30356    4.81663    2.21746    2.16062
 2882.02235   11.82306   59.59136   11.08142   10.49796    7.69963    0.31786    4.90596    2.22648    1.31786
 2882.17475   11.79482   55.48407   10.92333   10.32782    7.73268    0.30517    5.05702    2.24209    0.96594
 2882.32715   11.77481   50.73293   10.72778   10.08712    7.82567    0.30141    5.08223    2.25167    0.69912
 2882.47955   11.77111   49.35033   10.36572    9.60275    7.94337    0.31301    4.98912    2.25744    0.90986
 2882.63195   11.76351   49.56509   10.01826    9.15112    7.79412    0.32082    4.98490    2.26764    1.22082
 2882.78435   11.74155   49.75502    9.56743    8.61167    7.24744    0.32486    5.15961    2.29676    0.83088
 2882.93675   11.72856   53.94021    9.30689    8.34788    6.85966    0.31668    5.25451    2.30415    1.10216
 2883.08915   11.72371   57.53769    8.95014    8.04194    6.84499    0.33112    5.22877    2.29394    0.81504
 2883.24155   11.74133   52.93194    8.21157    7.40634    6.12509    0.35176    5.00950    2.26737    1.01195
 2883.39395   11.76870   51.41640    7.84177    7.06826    4.77927    0.34423    4.88692    2.26010    1.00957
 2883.54635   11.80139   57.03589    7.71587    6.92313    3.12093    0.35163    4.90254    2.25023    1.85983
 2883.69875   11.79726   59.39235    8.09091    7.29603    3.46392    0.36861    5.07659    2.24882    3.03707
 2883.85115   11.78105   57.51538    9.43037    8.57458    6.29735    0.37372    5.33843    2.26965    3.24624
 2884.00355   11.77804   55.07581   10.38195    9.35957    7.87973    0.34634    5.31522    2.27622    2.12543
 2884.15595   11.77374   51.53820   11.52606   10.20455    7.79437    0.34041    5.02923    2.25871    0.35004
 2884.30835   11.77550   50.98230   11.74269   10.33810    7.48502    0.34059    4.83087    2.24850   -0.33796
 2884.46075   11.78492   53.62322   11.44276   10.15556    6.94414    0.32923    4.71921    2.23588   -0.82835
 2884.61315   11.78897   53.75208   11.24000   10.05152    6.76084    0.33823    4.78377    2.22443   -0.72885
 2884.76555   11.78780   51.35833   11.07333    9.98007    6.83613    0.33365    4.90615    2.21718   -1.21087
 2884.91795   11.78603   48.30263   10.97628    9.95016    6.97384    0.32458    4.95257    2.21481   -1.57408
 2885.07035   11.79103   47.49911   10.71572    9.79871    7.07334    0.32639    4.95075    2.21428   -1.73944
 2885.22275   11.79943   50.00282   10.42124    9.57820    7.10826    0.33254    4.96193    2.22045   -1.92024
 2885.37515   11.81277   52.41034    9.90761    9.12265    7.15445    0.33683    5.00124    2.22996   -2.02364
 2885.52755   11.81324   52.12654    9.55012    8.76665    7.15692    0.31687    5.01076    2.23212   -1.63911
 2885.67995   11.78409   52.58392    9.23826    8.47136    7.05904    0.33090    4.92823    2.23444   -1.51452
 2885.83235   11.75461   55.80962    8.83193    8.10861    6.94530    0.34061    4.86174    2.24314   -0.97683
 2885.98475   11.73344   61.70944    7.89204    7.27128    6.45878    0.32367    4.86130    2.25682   -0.85872
 2886.13715   11.72684   64.63358    7.16258    6.59291    6.49308    0.34854    4.93181    2.25669   -0.33770
 2886.28955   11.72868   64.65325    6.65197    6.07448    6.25401    0.37061    5.02601    2.25284   -0.55684
 2886.44195   11.75037   57.21614    6.33817    5.81446    5.44900    0.39814    5.08719    2.23365   -0.05737
 2886.59435   11.76816   51.72817    6.41755    5.95230    5.48667    0.42363    5.09037    2.21216   -0.15424
 2886.74675   11.79906   49.23258    6.71172    6.27516    6.05125    0.38816    5.15525    2.19635    0.06601
