~Version ---------------------------------------------------
VERS.   2.0 : CWLS log ASCII Standard -VERSION 2.0
WRAP.    NO : One line per depth step
DLM . SPACE : Column Data Section Delimiter
~Well ------------------------------------------------------
STRT.m          150.09995 : START DEPTH
STOP.m 3310.4187500000016 : STOP DEPTH
STEP.m 0.1524000000000001 : STEP
NULL.             -999.25 : NULL VALUE
COMP.                     : COMPANY
WELL.                  W1 : WELL
FLD .                     : FIELD
LOC .                     : LOCATION
PROV.                     : PROVINCE
CNTY.                     : COUNTY
STAT.                     : STATE
CTRY.                     : COUNTRY
SRVC.                     : SERVICE COMPANY
DATE.                     : DATE
UWI .                     : UNIQUE WELL ID
API .                     : API NUMBER
~Curve Information -----------------------------------------
DEPT.m      : 
CAL .UNKWN  : 
GR  .GAPI   : 
LLD .OHMM   : 
LLS .OHMM   : 
MSFL.UNKWN  : 
NPHI.V/V    : 
PE  .UNKWN  : 
RHOB.G/C3   : 
SP  .UNKWN  : 
~Params ----------------------------------------------------
~Other -----------------------------------------------------
This las is generated by Laggy, the splicing module developed by Ameyem Geosolutions exclusively for Cairn Vedanta...
~ASCII -----------------------------------------------------
# ...
  372.60395   17.18458   51.45473  105.05655   40.05535    5.70528    0.54717    2.97946    2.05979  108.06500
  372.75635   17.18365   51.04077  104.81198   39.86861    5.78693    0.56174    2.94252    2.05558  107.36761
  372.90875   17.18530   51.97650  104.46955   39.78292    5.70099    0.53866    2.84635    2.05770  106.86785
  373.06115   17.19603   51.92073  103.73196   39.74493    5.74009    0.53333    2.83877    2.06683  106.60975
  373.21355   17.20542   53.71877  103.10662   39.57508    5.81322    0.56598    2.89791    2.06902  106.64462
  373.36595   17.21555   64.98122  102.06475   39.17741    5.79489    0.47286    2.89366    2.07739  106.98670
  373.51835   17.22378   69.50851  100.93173   38.63900    5.66460    0.51112    2.83278    2.09353  106.97147
  373.67075   17.25275   62.82922   99.21862   37.74835    5.66909    0.58901    2.72316    2.09577  106.63213
  373.82315   17.27983   58.32475   97.68177   36.94590    5.80559    0.60572    2.66879    2.08005  106.46833
  373.97555   17.24961   59.88935   96.52909   36.28868    6.18004    0.54098    2.74069    2.06744  106.43216
  374.12795   17.14510   60.88785   96.36466   36.19566    6.40704    0.56418    2.80492    2.04974  106.31516
  374.28035   16.49913   55.95437   97.56071   36.66363    5.71542    0.51397    2.79624    2.00354  106.51537
  374.43275   15.68308   53.08099   99.16611   37.35073    5.05979    0.52312    2.80770    2.00701  106.86217
  374.58515   14.66496   55.77054  101.28129   38.25022    4.97089    0.45428    2.90134    2.06114  106.70014
  374.73755   14.39509   58.49937  102.32293   38.77959    5.46110    0.39997    2.94358    2.08262  107.18068
  374.88995   14.36537   59.06540  102.57546   38.97239    5.92891    0.35848    2.97448    2.08383  107.36357
  375.04235   14.36775   62.49304  101.78724   38.74206    6.04670    0.35557    3.08935    2.06533  107.52548
  375.19475   14.37068   66.10289  101.14664   38.44540    5.91693    0.35018    3.12659    2.05594  107.60772
  375.34715   14.38032   70.82493  100.36731   37.93601    5.83134    0.40111    3.06411    2.03193  108.05938
  375.49955   14.38718   71.37724  100.26440   37.71847    5.79439    0.38103    3.01053    2.00528  108.48473
  375.65195   14.39648   61.41866  100.60456   37.59297    5.55979    0.38825    2.99959    1.96740  108.65933
  375.80435   14.37827   57.98186  100.97149   37.70326    5.28900    0.37058    3.04771    1.94560  108.97145
  375.95675   14.26488   61.24408  101.91586   38.16492    4.89140    0.38363    3.09972    1.91969  107.87338
  376.10915   14.17312   62.77042  102.73109   38.74313    4.76571    0.35356    3.09560    1.92935  107.93647
  376.26155   14.07583   65.10738  102.75284   39.50294    4.74678    0.34237    3.04163    1.98255  108.57449
  376.41395   14.04177   67.05508  102.21931   39.72279    4.79192    0.34813    2.98146    2.01390  108.52477
  376.56635   14.01730   67.37089   99.99488   39.64321    4.66521    0.32079    2.95360    2.02420  108.63418
  376.71875   14.00997   64.33176   97.86612   39.20254    4.54808    0.31632    2.96645    2.01977  108.75432
  376.87115   14.00847   61.13851   95.63547   38.75645    4.50950    0.33366    2.99527    2.01898  109.05602
  377.02355   14.00749   62.87994   93.65327   38.33701    4.53785    0.31823    3.02882    2.01936  109.01919
  377.17595   14.00871   65.33218   89.94600   37.19114    4.49286    0.32776    2.99917    2.02225  109.06950
  377.32835   14.01041   65.67392   87.36472   36.29064    4.47545    0.31603    2.95034    2.01940  109.07682
  377.48075   14.01096   67.75132   84.63162   35.05194    4.46220    0.30414    2.95431    1.99511  109.21527
  377.63315   14.01070   68.66198   84.42915   34.82178    4.44299    0.32284    2.99404    2.00403  109.39382
  377.78555   14.01002   71.28461   87.21946   35.50800    4.49537    0.31225    3.10077    2.08097  109.70617
  377.93795   14.00751   71.22208   90.28433   36.12787    4.55018    0.31930    3.18899    2.12534  109.99639
  378.09035   14.00454   70.52115   93.33422   36.80062    4.59426    0.31284    3.25395    2.14505  110.16638
  378.24275   14.00376   70.79115   98.17205   37.52024    4.64830    0.28290    3.27412    2.17450  109.93150
  378.39515   14.00534   70.20878   99.55790   37.63443    4.68571    0.29157    3.26673    2.18320  109.96957
  378.54755   14.01398   69.27913  101.54753   37.71010    4.77161    0.31057    3.31028    2.17874  109.92706
  378.69995   14.03560   68.91390  102.34420   37.69760    4.81590    0.28643    3.31320    2.17610  110.33460
  378.85235   14.13511   67.60567  103.01102   37.46626    4.89310    0.31093    3.13385    2.17477  110.44124
  379.00475   14.24035   69.07189  103.33039   37.41240    5.00044    0.30287    3.02352    2.17710  110.27891
  379.15715   14.43935   69.46217  103.27380   37.27774    5.25771    0.31587    3.06960    2.17224  110.17420
  379.30955   14.62023   71.75237  102.89604   37.11963    5.30248    0.32686    3.16779    2.14555  109.91868
  379.46195   14.97150   72.76416  101.78084   36.80779    4.80487    0.34671    3.26876    2.08722  109.54012
  379.61435   15.26110   67.72507  100.73446   36.47198    4.57713    0.42227    3.30467    2.07437  109.69397
  379.76675   15.62454   63.76324   99.75231   36.08923    4.76342    0.40499    3.34223    2.08357  109.41905
  379.91915   15.85338   62.64689   99.13634   35.79963    5.01382    0.47151    3.35519    2.08023  109.42772
  380.07155   16.02894   61.29468   98.23789   35.42229    5.17086    0.51984    3.33593    2.06104  108.94726
  380.22395   16.14034   60.95109   97.35068   35.14386    5.20569    0.48240    3.32593    2.05215  109.29881
  380.37635   16.14230   60.08259   96.58984   35.02627    4.95798    0.49806    3.31962    2.07025  108.33622
  380.52875   16.01150   57.95631   96.37219   35.05447    4.77108    0.46761    3.30952    2.09808  108.15933
  380.68115   15.73110   55.75053   96.85039   35.35236    4.91422    0.43053    3.25840    2.11780  108.43545
  380.83355   15.57776   58.30569   97.35177   35.49326    5.08682    0.43625    3.18778    2.11502  108.61630
  380.98595   15.51008   68.61847   97.83683   35.50565    5.13180    0.48537    3.07314    2.11342  108.74902
  381.13835   15.48685   72.01215   97.82473   35.32922    5.16086    0.45394    3.01730    2.11707  108.56606
  381.29075   15.47501   70.52711   97.24298   34.96624    5.12472    0.43450    3.01760    2.11868  108.59391
  381.44315   15.50851   65.12729   95.49790   34.15465    4.94325    0.48460    3.16035    2.10565  108.27932
  381.59555   15.55233   62.35779   94.51544   33.71015    4.88763    0.55077    3.24163    2.08908  108.15371
  381.74795   15.60788   58.75437   93.60144   33.37777    5.06313    0.43761    3.24835    2.05636  108.07057
  381.90035   15.61086   57.03602   93.66879   33.51724    5.21722    0.45144    3.22848    2.04372  108.07774
  382.05275   15.59565   55.04530   94.53436   34.02869    5.44812    0.40971    3.21944    2.04807  108.51634
  382.20515   15.58442   56.22459   94.95619   34.32940    5.50948    0.42253    3.15932    2.05194  108.49540
  382.35755   15.57207   57.32496   95.76538   34.83019    5.32384    0.42578    2.99160    2.04143  108.42890
  382.50995   15.56841   58.01309   96.26536   34.91369    5.16671    0.44233    2.98136    2.03259  108.26768
  382.66235   15.56804   62.35913   97.13142   35.06646    5.10578    0.38616    3.03927    2.03834  108.39932
  382.81475   15.56860   63.30736   98.12162   35.17643    5.11435    0.41253    3.03905    2.05141  108.20135
  382.96715   15.57209   58.18919   99.84740   35.37193    5.19095    0.39811    3.06536    2.05523  108.56585
  383.11955   15.57748   54.93905  101.38936   35.57716    5.24457    0.37013    3.08800    2.05333  108.64904
  383.27195   15.58748   54.20227  102.74340   35.67948    5.37273    0.36330    3.03771    2.04932  108.91494
  383.42435   15.59291   55.13934  103.27651   35.66971    5.30410    0.34448    3.06538    2.04364  109.18143
  383.57675   15.59550   57.01810  103.44224   35.68515    5.07888    0.34658    3.25709    2.03952  109.16476
