~Version ---------------------------------------------------
VERS.   2.0 : CWLS log ASCII Standard -VERSION 2.0
WRAP.    NO : One line per depth step
DLM . SPACE : Column Data Section Delimiter
~Well ------------------------------------------------------
STRT.m          150.09995 : START DEPTH
STOP.m 3310.4187500000016 : STOP DEPTH
STEP.m 0.1524000000000001 : STEP
NULL.             -999.25 : NULL VALUE
COMP.                     : COMPANY
WELL.                  W1 : WELL
FLD .                     : FIELD
LOC .                     : LOCATION
PROV.                     : PROVINCE
CNTY.                     : COUNTY
STAT.                     : STATE
CTRY.                     : COUNTRY
SRVC.                     : SERVICE COMPANY
DATE.                     : DATE
UWI .                     : UNIQUE WELL ID
API .                     : API NUMBER
~Curve Information -----------------------------------------
DEPT.m      : 
CAL .UNKWN  : 
GR  .GAPI   : 
LLD .OHMM   : 
LLS .OHMM   : 
MSFL.UNKWN  : 
NPHI.V/V    : 
PE  .UNKWN  : 
RHOB.G/C3   : 
SP  .UNKWN  : 
~Params ----------------------------------------------------
~Other -----------------------------------------------------
This las is generated by Laggy, the splicing module developed by Ameyem Geosolutions exclusively for Cairn Vedanta...
~ASCII -----------------------------------------------------
# ...
  784.23635   14.01452   69.67533   77.33626   43.76154   12.00260    0.30043    2.87006    2.07584   81.65825
  784.38875   14.01588   68.80609   78.81340   44.56882   12.13278    0.30840    2.82535    2.08184   81.36158
  784.54115   14.01810   62.54248   81.72112   46.03192   12.27421    0.31102    2.76294    2.09857   81.38677
  784.69355   14.01857   62.24426   84.00254   47.03408   12.26939    0.29008    2.74215    2.10271   80.90662
  784.84595   14.01888   63.90721   86.93211   48.12333   12.02681    0.29453    2.77446    2.11025   80.86728
  784.99835   14.02009   63.26690   87.77757   48.37525   12.01550    0.28187    2.80893    2.11438   80.82769
  785.15075   14.02336   62.60948   87.81923   48.28720   13.16227    0.27920    2.79656    2.10776   80.54598
  785.30315   14.02456   62.98633   87.37287   48.12271   13.76646    0.27071    2.75862    2.10121   80.42124
  785.45555   14.02278   66.83805   86.30313   47.91280   13.83284    0.29961    2.68449    2.09968   80.44129
  785.60795   14.02041   67.83158   85.72011   47.85252   13.09310    0.28969    2.66885    2.10464   80.18837
  785.76035   14.01662   67.43227   85.14734   47.84098   12.31849    0.30671    2.74140    2.10051   79.93882
  785.91275   14.01578   68.52680   85.07134   47.85373   11.92936    0.29253    2.77944    2.08854   79.88640
  786.06515   14.01474   69.59572   85.61235   48.05863   11.89508    0.28457    2.80361    2.08389   79.66766
  786.21755   14.01432   68.24507   86.58034   48.42383   11.85832    0.30112    2.88217    2.08587   79.83154
  786.36995   14.01461   67.26814   87.60601   48.78880   11.83673    0.30166    2.97253    2.08571   79.94389
  786.52235   14.01443   66.92490   88.24566   48.95978   11.99048    0.28125    2.94576    2.08739   80.28797
  786.67475   14.01293   71.20363   88.96979   49.01229   11.84788    0.27850    2.89736    2.09456   80.54516
  786.82715   14.01215   76.36644   89.65851   49.19644   11.72126    0.28860    2.95003    2.10170   81.04769
  786.97955   14.01230   78.67888   90.61183   49.71844   11.99661    0.31268    3.09104    2.10950   81.43387
  787.13195   14.01230   77.70817   90.97886   49.95581   12.24869    0.31827    3.13983    2.11362   81.66946
  787.28435   14.01213   71.72292   89.60268   49.23978   12.09720    0.27931    3.08237    2.11233   82.27505
  787.43675   14.01210   67.53803   87.20671   47.86784   11.64780    0.28901    3.01802    2.10685   82.31798
  787.58915   14.01228   66.77399   84.09769   46.16616   11.48865    0.30216    2.98413    2.10265   82.52539
  787.74155   14.01230   68.99148   79.07990   43.50246   11.35319    0.34238    3.02654    2.09905   82.64679
  787.89395   14.01230   68.61277   75.67701   41.80247   11.53017    0.34030    3.07648    2.09608   82.86838
  788.04635   14.01230   63.86149   71.85971   39.99601   11.83711    0.29910    3.07992    2.09497   82.98302
  788.19875   14.01230   63.00324   70.72382   39.55412   11.79837    0.29577    3.04275    2.09759   83.26972
  788.35115   14.01210   69.81145   71.36488   40.03535   11.76294    0.32575    3.02392    2.09929   83.17130
  788.50355   14.01210   73.39444   73.21915   40.93846   11.94041    0.32252    3.05029    2.10045   83.09376
  788.65595   14.01210   74.50790   77.30847   42.71003   12.35694    0.30752    3.10725    2.11304   82.86991
  788.80835   14.01230   74.35455   79.36552   43.50592   12.38899    0.31700    3.13661    2.12389   82.81013
  788.96075   14.01230   75.76604   82.59598   44.40968   12.74509    0.30579    3.11838    2.13809   82.59105
  789.11315   14.01230   78.44506   83.76219   44.66139   12.88929    0.28956    3.04968    2.14902   82.69865
  789.26555   14.01230   76.95969   85.12138   44.67865   13.00055    0.30589    2.94764    2.16384   82.21911
  789.41795   14.01234   71.46521   86.38891   44.82740   12.88894    0.30946    2.91925    2.16804   82.20069
  789.57035   14.01236   71.07915   87.61886   45.18123   12.88708    0.31848    2.95364    2.16284   82.05810
  789.72275   14.01250   75.19561   88.52347   45.60793   12.61073    0.29975    2.96360    2.16073   81.87534
  789.87515   14.01235   84.00061   89.38788   46.15478   12.42177    0.28674    3.00139    2.16125   81.54694
  790.02755   14.01244   89.15091   90.07501   46.61420   12.45804    0.26974    3.11792    2.16461   81.22281
  790.17995   14.01246   86.20588   91.02718   47.14600   12.76620    0.29912    3.28534    2.17092   81.04110
  790.33235   14.01244   80.29454   91.89185   47.64211   12.99574    0.29881    3.26567    2.16896   80.76317
  790.48475   14.01272   72.61865   93.85498   48.63797   13.00079    0.30828    3.14299    2.16926   80.57047
  790.63715   14.01287   72.11154   95.32029   49.33725   12.90830    0.31001    3.14248    2.17474   80.23991
  790.78955   14.01300   75.09058   96.37988   49.93021   12.68225    0.32838    3.15341    2.17301   79.89705
  790.94195   14.01280   75.87058   97.95509   50.77264   12.68321    0.30165    3.04792    2.14884   79.52423
  791.09435   14.01280   74.76026   98.97211   51.37090   12.72601    0.30849    2.99810    2.13790   79.10276
  791.24675   14.01280   72.89693  100.07366   52.19069   12.96309    0.29200    2.97940    2.12848   79.13549
  791.39915   14.01300   70.63850  100.91403   52.84108   12.95025    0.29518    2.94967    2.11965   78.96387
  791.55155   14.01416   63.94647  102.73522   54.09896   12.87202    0.31893    2.93748    2.10643   79.00626
  791.70395   14.01589   63.13121  104.15610   55.00235   12.58047    0.31094    2.96702    2.10537   79.14047
  791.85635   14.01827   68.79932  106.33007   56.37916   12.43515    0.28481    2.93959    2.10297   79.38800
  792.00875   14.01860   70.49424  107.92882   57.33521   12.25873    0.29527    2.87644    2.10032   79.93167
  792.16115   14.01860   70.56921  109.56771   58.41310   12.07136    0.30254    2.89438    2.10690   80.41842
  792.31355   14.01868   72.33810  110.00776   58.81249   12.12633    0.29141    2.96968    2.11251   80.97066
  792.46595   14.02065   75.44971  107.79150   58.19018   12.72709    0.30081    2.95744    2.11775   81.22663
  792.61835   14.02136   77.90094  104.25386   56.84496   13.00972    0.30652    2.89305    2.12402   82.01942
  792.77075   14.01950   75.66763   96.47855   53.58407   13.48207    0.31813    2.89244    2.13487   82.17177
  792.92315   14.01765   73.97233   87.65010   50.07121   13.58355    0.29711    2.92446    2.14150   82.54683
  793.07555   14.01780   75.95683   75.49520   44.78325   12.94448    0.29397    2.98006    2.13914   82.65880
  793.22795   14.01840   76.25467   67.86831   41.23814   10.65105    0.30238    3.01554    2.13885   82.99950
  793.38035   14.01856   77.80007   62.13952   38.33819    7.91319    0.30956    3.04349    2.13727   84.34767
  793.53275   14.01860   78.50489   61.00158   37.95122    8.05567    0.30940    3.10163    2.13048   85.07968
  793.68515   14.01894   74.26236   64.30548   40.29450   11.62667    0.29894    3.16444    2.12596   85.55414
  793.83755   14.01900   70.66831   67.72654   42.33116   12.81025    0.30146    3.09461    2.13358   85.04197
  793.98995   14.01900   71.02447   71.11075   44.00543   12.94712    0.30248    2.95922    2.14884   84.45713
  794.14235   14.01675   74.81098   76.26493   45.92661   12.24342    0.30591    2.79184    2.15517   84.22864
  794.29475   14.01515   75.36865   77.84294   46.26752   12.00168    0.29345    2.79394    2.13965   84.07290
  794.44715   14.01312   79.70147   80.20370   46.63748   12.05908    0.32285    2.98976    2.12102   83.84495
  794.59955   14.01300   85.12079   82.14277   47.04407   11.91673    0.31395    3.14702    2.13205   83.67834
  794.75195   14.01310   87.54528   86.33636   48.01171   11.88857    0.35064    3.33717    2.16431   83.13406
  794.90435   14.01318   83.47069   89.18701   48.81586   11.93426    0.34051    3.39691    2.16522   83.02372
  795.05675   14.01303   79.47589   92.33183   49.87327   12.07826    0.30593    3.46150    2.14422   82.92898
  795.20915   14.01302   78.63019   93.85654   50.51788   12.12330    0.30562    3.53164    2.13553   82.86908
