~Version ---------------------------------------------------
VERS.   2.0 : CWLS log ASCII Standard -VERSION 2.0
WRAP.    NO : One line per depth step
DLM . SPACE : Column Data Section Delimiter
~Well ------------------------------------------------------
STRT.m          150.09995 : START DEPTH
STOP.m 3310.4187500000016 : STOP DEPTH
STEP.m 0.1524000000000001 : STEP
NULL.             -999.25 : NULL VALUE
COMP.                     : COMPANY
WELL.                  W1 : WELL
FLD .                     : FIELD
LOC .                     : LOCATION
PROV.                     : PROVINCE
CNTY.                     : COUNTY
STAT.                     : STATE
CTRY.                     : COUNTRY
SRVC.                     : SERVICE COMPANY
DATE.                     : DATE
UWI .                     : UNIQUE WELL ID
API .                     : API NUMBER
~Curve Information -----------------------------------------
DEPT.m      : 
CAL .UNKWN  : 
GR  .GAPI   : 
LLD .OHMM   : 
LLS .OHMM   : 
MSFL.UNKWN  : 
NPHI.V/V    : 
PE  .UNKWN  : 
RHOB.G/C3   : 
SP  .UNKWN  : 
~Params ----------------------------------------------------
~Other -----------------------------------------------------
This las is generated by Laggy, the splicing module developed by Ameyem Geosolutions exclusively for Cairn Vedanta...
~ASCII -----------------------------------------------------
# ...
 1418.37275   17.89640   63.71510   87.94544   57.84865    9.17874    0.33957    2.84544    2.14919   65.90077
 1418.52515   17.89720   59.87962   87.23190   57.58945    9.33684    0.33225    2.89879    2.15393   65.49877
 1418.67755   17.89897   59.53765   86.24903   57.03096    9.32062    0.33764    2.89272    2.15762   65.64872
 1418.82995   17.90144   61.86008   85.51259   56.61113    9.16270    0.33905    2.87324    2.16360   64.67671
 1418.98235   17.90266   59.20301   84.53653   55.93706    8.95012    0.32244    2.85938    2.16591   64.89294
 1419.13475   17.90236   57.41047   83.79559   55.54752    9.06608    0.33864    2.83197    2.16490   64.73569
 1419.28715   17.90129   58.86011   83.22603   55.19378    9.44153    0.33933    2.79632    2.16475   66.20760
 1419.43955   17.90285   63.51002   82.54804   54.86223   10.00703    0.35097    2.81770    2.15883   65.54181
 1419.59195   17.90142   65.18044   82.40269   54.77019   10.02684    0.34393    2.87793    2.15736   65.40445
 1419.74435   17.88330   60.87015   82.34177   54.61963   10.80461    0.35792    2.95774    2.16103   64.90397
 1419.89675   17.86901   58.97774   82.40282   54.53017   11.40974    0.32405    2.94715    2.16322   65.64818
 1420.04915   17.85521   65.36573   82.29473   54.28206   11.58413    0.31582    2.89052    2.17256   65.07081
 1420.20155   17.84080   70.48568   81.99086   54.05428   11.39151    0.33339    2.89655    2.17520   65.77957
 1420.35395   17.80818   73.25227   81.24807   53.67894   11.61294    0.32320    2.96180    2.17646   65.34471
 1420.50635   17.78619   70.12374   80.88136   53.50184   11.85201    0.32384    3.01685    2.18417   65.00603
 1420.65875   17.73509   64.20184   80.52633   53.47896   11.84735    0.36019    3.02221    2.19295   64.23489
 1420.81115   17.69363   63.38859   80.52395   53.54110   12.00653    0.36658    2.94466    2.19291   64.42805
 1420.96355   17.64032   66.57766   80.77914   53.80875   12.25938    0.31424    2.81901    2.19076   63.47603
 1421.11595   17.60571   68.25627   81.00318   53.86042   12.46727    0.31480    2.74709    2.18390   63.20976
 1421.26835   17.57737   64.58548   81.00406   53.82326   12.52600    0.33489    2.76387    2.17204   62.44750
 1421.42075   17.55703   62.00911   80.86800   53.61072   12.96468    0.33373    2.81973    2.16561   62.83822
 1421.57315   17.53522   60.43614   80.20640   53.19074   13.19079    0.33435    2.85063    2.15492   63.02901
 1421.72555   17.50783   60.84402   79.47639   52.73618   13.10986    0.30956    2.81292    2.14630   64.13936
 1421.87795   17.46744   62.75220   77.96419   51.90125   12.88019    0.28644    2.78079    2.13914   63.52374
 1422.03035   17.44762   62.06493   76.66208   51.11645   12.65600    0.31681    2.79839    2.13662   64.15751
 1422.18275   17.43913   63.02075   75.34571   50.44261   12.33056    0.30648    2.76689    2.14715   62.91133
 1422.33515   17.43720   66.11357   75.04540   50.27086   12.63409    0.33491    2.71437    2.15834   62.81340
 1422.48755   17.43790   67.46960   75.25716   50.52759   13.14425    0.34256    2.67770    2.16310   62.05569
 1422.63995   17.44014   64.60298   76.46940   51.37230   14.00728    0.30967    2.66848    2.16124   62.83194
 1422.79235   17.43969   63.23456   77.16663   51.77658   14.19433    0.32724    2.70235    2.16389   61.43507
 1422.94475   17.41869   63.96067   77.64027   51.86563   13.61773    0.31305    2.81694    2.17549   61.84608
 1423.09715   17.39886   64.22739   77.51886   51.60237   13.33426    0.29292    2.89314    2.18617   61.50404
 1423.24955   17.37782   60.54286   76.79847   50.97019   13.00506    0.31641    2.93900    2.19166   61.88810
 1423.40195   17.37435   61.31724   76.31758   50.54021   12.93913    0.31373    2.91687    2.18370   61.64289
 1423.55435   17.37151   61.21157   75.43062   49.76961   12.82623    0.30357    2.89548    2.17295   61.96025
 1423.70675   17.37080   61.83439   75.15871   49.51362   12.50033    0.30978    2.85937    2.17408   60.51103
 1423.85915   17.36786   70.75321   75.00531   49.27358   12.48769    0.30355    2.74654    2.18212   61.62438
 1424.01155   17.36287   72.10433   75.23584   49.31713   12.72309    0.30950    2.73945    2.18331   61.17760
 1424.16395   17.35653   71.70846   75.56074   49.42698   12.43019    0.30006    2.84689    2.17493   60.98378
 1424.31635   17.35415   74.17379   75.69148   49.45487   11.94852    0.29660    2.90268    2.16928   60.39029
 1424.46875   17.35621   76.27356   75.31936   49.13140   11.91433    0.30280    2.82641    2.17166   60.10011
 1424.62115   17.35679   74.54839   74.66996   48.63517   11.87669    0.31729    2.74152    2.17014   60.50741
 1424.77355   17.35449   72.09873   73.38230   47.68455   11.45415    0.34928    2.66265    2.16549   59.59758
 1424.92595   17.35232   71.01301   72.40366   46.94352   11.34779    0.36439    2.62966    2.16643   60.37918
 1425.07835   17.35180   66.09401   71.11513   46.07021   11.07089    0.32816    2.64322    2.16946   59.26857
 1425.23075   17.35206   64.14253   70.03148   45.38608   10.38603    0.31556    2.69817    2.17319   59.32384
 1425.38315   17.35245   67.14551   69.20019   44.71339    9.97558    0.30380    2.81350    2.17976   57.79867
 1425.53555   17.35547   68.47862   68.83821   44.47816    9.79344    0.30225    2.85561    2.18231   55.13726
 1425.68795   17.35698   68.30188   68.74706   44.32452    9.32540    0.32725    2.84989    2.18374   55.02972
 1425.84035   17.32071   65.49037   68.69790   44.08622    8.14748    0.33846    2.80087    2.19167   53.36404
 1425.99275   17.28313   60.56058   68.46256   43.97314    8.09951    0.34872    2.76509    2.19245   54.57701
 1426.14515   17.24667   55.33811   67.27584   43.11117    8.60306    0.34187    2.67545    2.17574   54.03700
 1426.29755   17.24527   57.07371   65.88397   42.27975    8.71594    0.32720    2.59077    2.16301   53.85195
 1426.44995   17.24755   59.51890   63.73400   40.86265    9.12700    0.33685    2.59984    2.16580   54.13910
 1426.60235   17.24797   59.17607   62.66358   40.17934    9.34404    0.31961    2.66732    2.18000   52.94648
 1426.75475   17.24609   60.54514   61.92948   39.60276    9.34015    0.30381    2.65689    2.19722   54.20983
 1426.90715   17.24393   60.02994   61.85231   39.54239    8.98979    0.29788    2.64101    2.19834   53.76139
 1427.05955   17.23961   59.51698   62.24635   39.54549    8.56094    0.28056    2.63097    2.19406   54.08366
 1427.21195   17.23777   60.05885   62.43752   39.51393    8.36510    0.26554    2.61112    2.19675   54.25478
 1427.36435   17.23596   58.36463   62.12247   39.10521    8.16508    0.27181    2.60724    2.20465   53.67747
 1427.51675   17.23550   56.89277   61.58936   38.68397    7.93038    0.27331    2.59756    2.20867   53.91241
 1427.66915   17.23564   62.85928   60.59633   37.93377    7.63171    0.26431    2.58861    2.20860   53.76493
 1427.82155   17.23570   71.17354   59.61716   37.33965    7.55364    0.25432    2.59447    2.20365   52.95758
 1427.97395   17.23622   73.02716   58.28609   36.43390    7.89661    0.28149    2.57566    2.19259   52.94594
 1428.12635   17.23739   73.23967   57.33101   35.83792    8.08809    0.28506    2.54940    2.18745   52.40546
 1428.27875   17.24112   78.53477   55.88949   34.83365    8.21737    0.27264    2.49612    2.19721   52.15434
 1428.43115   17.24286   84.18660   55.25826   34.48349    9.08456    0.28367    2.50465    2.20683   53.07664
 1428.58355   17.24392   85.10905   54.71452   34.24119    9.45012    0.25617    2.74181    2.21667   52.96644
 1428.73595   17.24490   76.89465   54.41909   34.22359    9.08950    0.26439    2.94622    2.23191   53.46102
 1428.88835   17.24684   69.27249   54.34364   34.26841    8.48445    0.26787    3.01665    2.24399   52.62867
 1429.04075   17.24713   64.70324   53.98038   34.10026    8.26616    0.25250    2.77788    2.23644   52.80406
 1429.19315   17.24539   63.36051   53.36836   33.80415    8.19408    0.25141    2.62348    2.22451   53.76781
 1429.34555   17.24022   59.86878   51.71310   33.01082    8.05590    0.25760    2.60569    2.20716   53.50877
