~Version ---------------------------------------------------
VERS.   2.0 : CWLS log ASCII Standard -VERSION 2.0
WRAP.    NO : One line per depth step
DLM . SPACE : Column Data Section Delimiter
~Well ------------------------------------------------------
STRT.m          150.09995 : START DEPTH
STOP.m 3310.4187500000016 : STOP DEPTH
STEP.m 0.1524000000000001 : STEP
NULL.             -999.25 : NULL VALUE
COMP.                     : COMPANY
WELL.                  W1 : WELL
FLD .                     : FIELD
LOC .                     : LOCATION
PROV.                     : PROVINCE
CNTY.                     : COUNTY
STAT.                     : STATE
CTRY.                     : COUNTRY
SRVC.                     : SERVICE COMPANY
DATE.                     : DATE
UWI .                     : UNIQUE WELL ID
API .                     : API NUMBER
~Curve Information -----------------------------------------
DEPT.m      : 
CAL .UNKWN  : 
GR  .GAPI   : 
LLD .OHMM   : 
LLS .OHMM   : 
MSFL.UNKWN  : 
NPHI.V/V    : 
PE  .UNKWN  : 
RHOB.G/C3   : 
SP  .UNKWN  : 
~Params ----------------------------------------------------
~Other -----------------------------------------------------
This las is generated by Laggy, the splicing module developed by Ameyem Geosolutions exclusively for Cairn Vedanta...
~ASCII -----------------------------------------------------
# ...
 2464.14155   11.85667   34.31217   36.75935   28.79159   10.20639    0.29898    5.11442    2.10104   -5.87256
 2464.29395   11.82798   32.54250   36.24078   28.42449   12.58691    0.27184    5.12893    2.21198   -5.47306
 2464.44635   11.84435   33.92504   34.34141   27.10456   11.00458    0.28917    5.23667    2.29722   -5.20879
 2464.59875   11.85393   35.43893   33.35929   26.28938   12.03870    0.29748    5.23512    2.31476   -5.13945
 2464.75115   11.86328   37.71643   32.75312   25.84432   10.42268    0.35454    5.21720    2.30815   -5.20955
 2464.90355   11.86807   38.39286   32.94895   26.09363    8.83004    0.35886    5.16291    2.26601   -5.24063
 2465.05595   11.88565   39.18791   34.41626   27.67963    7.21632    0.35466    5.06067    2.19136   -5.11192
 2465.20835   11.91158   39.26486   35.48135   28.73092    6.85382    0.32894    5.18734    2.19064   -5.10803
 2465.36075   11.97503   36.62093   36.04401   29.39499    6.11351    0.31286    5.39901    2.21050   -5.69033
 2465.51315   12.01350   36.29638   35.74743   29.17431    6.10347    0.31398    5.40232    2.19937   -5.81618
 2465.66555   12.07551   39.22252   34.09242   27.82013    5.85603    0.31406    5.52149    2.18184   -6.39638
 2465.81795   12.11147   41.59749   32.66904   26.65818    4.89003    0.31256    5.61458    2.18241   -6.27425
 2465.97035   12.03961   41.05665   31.42794   25.62693    4.77449    0.32297    5.48959    2.17688   -6.17702
 2466.12275   11.94548   38.35660   30.76167   25.14544    5.71693    0.29573    5.49726    2.15599   -5.95844
 2466.27515   11.88549   36.20922   30.57378   25.03721    6.83261    0.29628    5.85249    2.14192   -5.58706
 2466.42755   11.87761   35.04922   30.85462   25.32767    7.00520    0.32130    5.93811    2.15675   -5.78458
 2466.57995   11.88078   31.45977   31.84014   26.12314    6.24552    0.33329    5.59897    2.18710   -5.47493
 2466.73235   11.87843   29.72817   33.26505   27.41799    8.23626    0.32504    5.49428    2.19867   -5.56960
 2466.88475   11.88175   35.80125   34.15697   28.35392   12.98525    0.28140    5.80850    2.20623   -5.34829
 2467.03715   11.89216   45.07409   33.74133   28.10314   12.98833    0.28796    5.89447    2.21177   -5.36012
 2467.18955   11.90954   53.03407   32.69811   27.21738    9.78268    0.29379    5.61837    2.22513   -5.35378
 2467.34195   11.94054   52.25658   30.53171   25.29318    5.78965    0.31278    4.95410    2.25084   -5.21848
 2467.49435   11.93787   45.89733   29.89789   24.70657    6.12109    0.31813    4.89701    2.24439   -5.14156
 2467.64675   11.90014   40.81607   30.72604   25.69287    7.15020    0.31953    5.37685    2.17954   -5.70003
 2467.79915   11.88336   41.02223   31.82631   26.76196   10.26648    0.29198    5.70013    2.14050   -5.94483
 2467.95155   11.89405   46.00480   34.12176   28.73514   10.63761    0.31323    5.82324    2.16927   -5.62147
 2468.10395   11.91946   49.20343   34.63519   29.08694    7.79394    0.32189    5.64918    2.23752   -5.66165
 2468.25635   12.02814   46.65829   33.01493   27.58279    5.10325    0.31216    5.23299    2.32337   -5.94678
 2468.40875   12.11543   46.22632   31.46943   26.18241    4.03602    0.31277    5.11007    2.29830   -6.33417
 2468.56115   12.16469   47.25840   29.69307   24.59440    3.66955    0.30235    5.30064    2.16860   -6.98325
 2468.71355   12.09530   45.36931   29.14413   24.08795    4.35736    0.31872    5.65516    2.10428   -6.93762
 2468.86595   11.96392   42.92224   29.77888   24.64434    5.46953    0.32057    6.41694    2.08840   -7.24213
 2469.01835   11.89627   42.66337   30.89765   25.55980    5.54808    0.32736    6.74783    2.10411   -6.83165
 2469.17075   11.87938   41.82746   33.28936   27.49500    5.83446    0.32729    6.13935    2.14192   -6.74080
 2469.32315   11.87377   39.23721   35.22025   29.10374    7.92226    0.31344    5.74446    2.17201   -5.99845
 2469.47555   11.89988   34.60272   36.14276   29.72800   11.39395    0.32791    5.98826    2.17614   -5.40328
 2469.62795   11.94238   33.28441   35.89963   29.36689    9.74418    0.32304    5.92720    2.17311   -5.37050
 2469.78035   11.97041   33.67462   34.32654   27.66982    5.94914    0.32907    5.06829    2.19802   -5.34108
 2469.93275   11.94796   32.31397   33.53481   26.82022    5.42210    0.31084    4.66952    2.21010   -5.74233
 2470.08515   11.89649   29.84190   34.25059   27.55699    7.27090    0.33550    5.32067    2.18006   -5.66034
 2470.23755   11.88609   30.35059   35.38320   28.59245    8.60902    0.35334    5.97351    2.15135   -5.96171
 2470.38995   11.88838   31.36561   36.88654   29.91831   10.94278    0.34900    6.16834    2.14166   -5.83233
 2470.54235   11.91255   30.79895   39.23482   31.79021   13.55468    0.32956    5.78951    2.17310   -5.79161
 2470.69475   11.95577   30.90154   39.84170   32.28118   13.56031    0.31007    5.37241    2.19624   -5.77357
 2470.84715   12.06946   27.77056   39.34958   32.13608   13.32654    0.28964    4.40219    2.21300   -5.99914
 2470.99955   12.15583   27.56571   37.45066   30.73367   10.21043    0.28996    3.96068    2.21380   -6.00051
 2471.15195   12.41824   33.36454   33.22129   27.31499    5.10416    0.30938    3.81918    2.21525   -6.63012
 2471.30435   12.57794   35.29719   29.72755   24.34233    3.26892    0.32380    4.10905    2.20549   -7.14695
 2471.45675   12.56046   34.40535   26.34622   21.35136    2.84966    0.35219    5.46986    2.12803   -7.38187
 2471.60915   12.37243   33.98611   25.21240   20.41951    3.03595    0.35479    6.54446    2.04815   -7.57639
 2471.76155   12.03108   34.82552   25.50234   20.86357    4.66373    0.34134    7.43472    1.96714   -7.29167
 2471.91395   11.87934   36.78404   26.56168   21.95181    6.81816    0.34752    7.56381    1.97826   -7.31184
 2472.06635   11.80233   43.04025   28.63874   23.80119   11.46538    0.35900    7.36462    2.08181   -6.41565
 2472.21875   11.79464   45.86520   30.44252   25.28721   13.70591    0.33781    6.78964    2.20130   -6.11540
 2472.37115   11.79598   42.76734   31.16414   25.78832   14.22786    0.32639    5.74810    2.31365   -6.33617
 2472.52355   11.79031   41.58873   29.57586   24.76952   14.50094    0.33119    5.10855    2.34512   -6.57874
 2472.67595   11.79713   44.43078   24.12035   20.90897   15.15985    0.29901    4.61167    2.30734   -6.96959
 2472.82835   11.82541   48.38861   20.05889   17.67763   12.04543    0.30344    4.30518    2.27552   -6.88807
 2472.98075   11.87881   53.59948   15.93988   13.74416    7.39006    0.30049    4.10088    2.26594   -6.56625
 2473.13315   12.00123   61.16275   14.28933   12.11637    5.91783    0.31120    4.04349    2.27596   -5.92440
 2473.28555   12.23040   71.71287   13.96951   11.98198    6.94710    0.33077    3.73979    2.28158   -4.73032
 2473.43795   12.30342   69.71031   14.51272   12.59092    7.75984    0.34309    3.32310    2.27355   -4.36017
 2473.59035   12.32532   65.19522   15.14736   13.20311    7.99517    0.34107    3.06593    2.27880   -4.39586
 2473.74275   12.43134   68.96958   15.22496   13.26860    7.37345    0.33925    3.47727    2.32352   -4.30800
 2473.89515   12.46090   72.65925   14.41483   12.59238    7.01804    0.33181    3.99730    2.34650   -4.14203
 2474.04755   12.30012   76.58007   12.12919   10.67886    5.99821    0.35970    4.59283    2.35107   -3.31574
 2474.19995   12.17444   80.03983   10.91440    9.63795    5.52275    0.35856    4.61178    2.34369   -2.83848
 2474.35235   12.11912   84.56932    9.67732    8.57003    4.78457    0.37843    4.01072    2.32698   -2.53094
 2474.50475   12.12219   85.16819    9.26249    8.21020    4.71787    0.37771    3.50834    2.30217   -2.11006
 2474.65715   12.13961   89.90881    9.06159    8.04476    4.46052    0.38922    3.06519    2.25902   -2.00162
 2474.80955   12.13034   90.85378    9.09545    8.08053    4.53757    0.40678    3.04103    2.25331   -1.83680
 2474.96195   12.07815   88.46834    9.02671    8.02164    4.70334    0.38441    3.02732    2.24311   -1.90364
 2475.11435   12.06541   91.93914    8.88217    7.88831    4.57857    0.42872    2.95260    2.22636   -1.91933
