~Version ---------------------------------------------------
VERS.   2.0 : CWLS log ASCII Standard -VERSION 2.0
WRAP.    NO : One line per depth step
DLM . SPACE : Column Data Section Delimiter
~Well ------------------------------------------------------
STRT.m          150.09995 : START DEPTH
STOP.m 3310.4187500000016 : STOP DEPTH
STEP.m 0.1524000000000001 : STEP
NULL.             -999.25 : NULL VALUE
COMP.                     : COMPANY
WELL.                  W1 : WELL
FLD .                     : FIELD
LOC .                     : LOCATION
PROV.                     : PROVINCE
CNTY.                     : COUNTY
STAT.                     : STATE
CTRY.                     : COUNTRY
SRVC.                     : SERVICE COMPANY
DATE.                     : DATE
UWI .                     : UNIQUE WELL ID
API .                     : API NUMBER
~Curve Information -----------------------------------------
DEPT.m      : 
CAL .UNKWN  : 
GR  .GAPI   : 
LLD .OHMM   : 
LLS .OHMM   : 
MSFL.UNKWN  : 
NPHI.V/V    : 
PE  .UNKWN  : 
RHOB.G/C3   : 
SP  .UNKWN  : 
~Params ----------------------------------------------------
~Other -----------------------------------------------------
This las is generated by Laggy, the splicing module developed by Ameyem Geosolutions exclusively for Cairn Vedanta...
~ASCII -----------------------------------------------------
# ...
  583.98275   14.02293   69.85646   77.29015   45.91311   12.69652    0.27962    2.83862    2.07876   91.95650
  584.13515   14.02428   71.93772   76.62781   45.64266   12.43280    0.27674    2.84642    2.08113   92.27954
  584.28755   14.02460   72.90558   76.49286   45.62761   12.25412    0.30561    2.83256    2.07706   92.29551
  584.43995   14.02166   69.83654   76.15034   45.63358   12.59036    0.33327    2.90865    2.07620   92.32642
  584.59235   14.01770   68.09770   75.73750   45.55352   12.72671    0.34176    2.96535    2.08382   92.32177
  584.74475   14.01476   72.35134   73.88017   44.81339   12.35912    0.29003    2.95650    2.09279   92.56888
  584.89715   14.01999   74.71192   71.70697   43.82318   12.19694    0.27505    2.99229    2.08712   92.53671
  585.04955   14.03402   69.90891   66.83223   41.38312   12.13767    0.30477    3.00984    2.08293   92.38844
  585.20195   14.04679   68.60081   63.83957   39.67698   12.08083    0.31887    2.87123    2.09269   92.11079
  585.35435   14.10053   75.76542   60.85528   37.73304    9.97320    0.31318    2.75854    2.10165   91.65048
  585.50675   14.19966   75.79122   60.56954   37.60612    8.72575    0.33683    2.91559    2.09094   91.55484
  585.65915   14.39462   75.45870   63.40393   39.28895    9.44006    0.31029    3.24953    2.06702   91.37620
  585.81155   14.49497   80.92133   66.57425   40.97976   13.90977    0.29812    3.35199    2.07494   91.20050
  585.96395   14.41152   88.94482   70.70768   42.78305   16.11872    0.28780    3.40591    2.13441   91.23985
  586.11635   14.24574   96.34668   74.04886   43.89418   15.47310    0.29747    3.55311    2.18911   91.15413
  586.26875   14.08112   96.46979   77.19663   44.85568   14.48480    0.33211    3.72781    2.21052   91.10967
  586.42115   14.03255   92.34199   79.50306   45.74590   14.04742    0.32700    3.58628    2.20129   91.06155
  586.57355   14.02091   91.68893   82.44782   47.18038   13.73053    0.31268    3.13288    2.17553   90.91227
  586.72595   14.01716   86.72214   84.62938   48.27184   13.62344    0.29871    2.92213    2.14803   90.84671
  586.87835   14.01549   69.74265   85.84759   48.83766   13.53128    0.29232    2.85418    2.10385   91.05099
  587.03075   14.01504   60.31472   85.97886   48.77934   13.58486    0.30150    2.79681    2.08366   91.39138
  587.18315   14.01615   61.53603   85.27506   48.32394   13.64923    0.28977    2.76658    2.08130   91.41037
  587.33555   14.01692   68.73549   84.15255   47.71397   13.53930    0.28054    2.76805    2.09087   91.74630
  587.48795   14.01724   75.45019   82.87334   47.00391   13.32620    0.28114    2.72267    2.10463   91.91954
  587.64035   14.01650   74.50109   79.61677   45.47957   12.91399    0.28419    2.67355    2.11782   92.07115
  587.79275   14.01594   71.94127   77.50546   44.47188   12.69730    0.28070    2.71630    2.11936   92.29957
  587.94515   14.01539   71.84040   74.24717   43.02858   12.86541    0.28829    2.88062    2.12030   92.44798
  588.09755   14.01431   72.91617   72.56224   42.30263   12.94073    0.31190    2.98874    2.12337   92.46409
  588.24995   14.01440   72.69780   69.88340   41.25065   13.57645    0.30855    3.06508    2.12100   92.65195
  588.40235   14.01472   71.97521   68.20479   40.61661   13.72505    0.28760    3.04798    2.11734   92.60352
  588.55475   14.01576   73.45099   66.69700   39.92239   13.31263    0.26952    2.97562    2.12518   92.45714
  588.70715   14.01598   77.58354   66.68324   39.96926   12.99295    0.28162    2.97945    2.12752   92.48294
  588.85955   14.01712   80.80153   68.03652   40.64200   12.96423    0.27778    2.98918    2.11178   92.71012
  589.01195   14.01728   78.81740   69.64244   41.38040   13.01973    0.27621    2.90941    2.09836   92.69018
  589.16435   14.01691   74.62876   72.17341   42.31277   13.45962    0.29037    2.76203    2.08528   92.74095
  589.31675   14.01722   69.92886   74.48530   43.08533   13.88913    0.29203    2.67690    2.08219   92.58024
  589.46915   14.01728   65.31422   77.00468   43.88987   14.06760    0.29560    2.71609    2.08412   92.51654
  589.62155   14.01786   63.51567   78.82827   44.45891   14.05063    0.30987    2.79236    2.08349   92.69154
  589.77395   14.01770   61.64460   80.04079   44.67413   13.87287    0.30574    2.77645    2.08243   92.63183
  589.92635   14.01770   63.89134   80.16530   44.49210   13.82996    0.28966    2.67522    2.08529   92.49608
  590.07875   14.01802   66.85158   78.85730   43.74023   14.01667    0.29596    2.60279    2.09342   92.48285
  590.23115   14.01810   62.74435   77.63549   43.12719   14.36297    0.30567    2.64185    2.10016   92.74870
  590.38355   14.01810   58.95842   75.38971   42.29157   14.75385    0.28098    2.65362    2.11623   92.65705
  590.53595   14.01810   65.54398   74.20877   41.85970   14.71106    0.26391    2.60709    2.12633   92.77319
  590.68835   14.01810   74.48314   73.17393   41.56177   14.26695    0.27101    2.59449    2.13267   92.57946
  590.84075   14.01840   80.42283   72.18456   41.32280   13.49358    0.27160    2.74549    2.14177   92.60253
  590.99315   14.01859   86.86255   72.11707   41.42553   13.14429    0.27152    2.89652    2.14511   92.78462
  591.14555   14.01860  104.05143   72.68275   41.90209   13.01756    0.29832    3.10150    2.14707   92.86875
  591.29795   14.01860  109.22190   73.16077   42.14675   13.25981    0.30302    3.20287    2.14532   92.89813
  591.45035   14.01860  102.41546   74.48490   42.67953   13.69180    0.30929    3.31257    2.14300   92.97651
  591.60275   14.01906   94.19839   75.09670   42.85762   14.05429    0.29150    3.27181    2.14092   93.00655
  591.75515   14.02142   79.59751   76.33390   43.31443   14.83620    0.28905    3.05200    2.12439   93.36476
  591.90755   14.01997   74.98361   77.16268   43.68001   15.13037    0.28269    2.89666    2.11727   93.64264
  592.05995   14.01480   71.56782   77.76702   43.94858   14.96742    0.27713    2.82813    2.12110   93.72356
  592.21235   14.01421   71.98209   77.69027   43.91868   14.69990    0.30008    2.94540    2.12581   93.72009
  592.36475   14.02390   77.65547   77.21195   43.61947   14.54804    0.29227    3.10636    2.13624   93.71511
  592.51715   14.03618   80.79376   76.87020   43.51269   14.57779    0.27443    3.10023    2.14781   93.69478
  592.66955   14.05757   80.82112   77.30107   44.10855   14.75245    0.27110    2.93371    2.16558   92.98515
  592.82195   14.09758   78.48205   78.04958   44.91174   13.97307    0.28355    2.89681    2.17040   92.69984
  592.97435   14.18191   73.04596   78.92884   45.79900   13.92917    0.29613    3.09707    2.15460   92.07498
  593.12675   14.22389   68.87441   79.57057   46.29907   15.09809    0.30237    3.22230    2.15062   92.13962
  593.27915   14.17055   66.92968   80.73815   46.78278   16.94757    0.28081    3.13789    2.15713   92.04950
  593.43155   14.11250   67.75322   81.91017   47.14027   16.83796    0.27947    3.03664    2.15670   91.99298
  593.58395   14.08197   70.15173   84.76515   48.14210   16.69421    0.27085    3.06599    2.15729   91.89169
  593.73635   14.08286   71.60516   86.68709   49.00008   16.07806    0.25885    3.08179    2.16169   91.66237
  593.88875   14.08695   72.91637   89.17922   50.17620   16.01678    0.28572    3.00670    2.16910   92.05788
  594.04115   14.10938   72.21586   93.85996   52.71311   15.14327    0.31977    2.98509    2.18383   92.44153
  594.19355   14.11551   71.83431   96.53258   54.23343   14.80256    0.32385    3.08236    2.19139   92.89769
  594.34595   14.09298   71.97004  100.69847   56.42515   15.59845    0.30575    3.10770    2.18067   93.20788
  594.49835   14.06577   72.54479  103.82158   57.92920   17.10484    0.29391    3.00842    2.16635   93.32048
  594.65075   14.04662   70.00845  106.10022   59.22349   16.95845    0.27761    2.84523    2.17144   93.53442
  594.80315   14.04215   68.48989  105.82350   59.21394   16.77668    0.27510    2.81317    2.17875   93.94403
  594.95555   14.03605   71.15315   98.51374   56.46027   15.47508    0.29844    2.86573    2.17048   93.94849
