~Version ---------------------------------------------------
VERS.   2.0 : CWLS log ASCII Standard -VERSION 2.0
WRAP.    NO : One line per depth step
DLM . SPACE : Column Data Section Delimiter
~Well ------------------------------------------------------
STRT.m          150.09995 : START DEPTH
STOP.m 3310.4187500000016 : STOP DEPTH
STEP.m 0.1524000000000001 : STEP
NULL.             -999.25 : NULL VALUE
COMP.                     : COMPANY
WELL.                  W1 : WELL
FLD .                     : FIELD
LOC .                     : LOCATION
PROV.                     : PROVINCE
CNTY.                     : COUNTY
STAT.                     : STATE
CTRY.                     : COUNTRY
SRVC.                     : SERVICE COMPANY
DATE.                     : DATE
UWI .                     : UNIQUE WELL ID
API .                     : API NUMBER
~Curve Information -----------------------------------------
DEPT.m      : 
CAL .UNKWN  : 
GR  .GAPI   : 
LLD .OHMM   : 
LLS .OHMM   : 
MSFL.UNKWN  : 
NPHI.V/V    : 
PE  .UNKWN  : 
RHOB.G/C3   : 
SP  .UNKWN  : 
~Params ----------------------------------------------------
~Other -----------------------------------------------------
This las is generated by Laggy, the splicing module developed by Ameyem Geosolutions exclusively for Cairn Vedanta...
~ASCII -----------------------------------------------------
# ...
 2041.38395   11.75681   67.31650   43.42907   29.23968   11.02542    0.28753    5.14330    2.21542   -8.47523
 2041.53635   11.77433   68.35577   43.79734   29.39862   11.41112    0.29503    4.90620    2.21365   -8.75347
 2041.68875   11.78653   73.21582   44.00741   29.45679   11.44498    0.27852    4.82052    2.21268   -8.88948
 2041.84115   11.79193   75.72396   43.98284   29.34382   10.86904    0.26825    4.90122    2.20068   -9.44044
 2041.99355   11.79513   75.20622   43.78953   29.14936   10.45258    0.27561    4.98179    2.18927   -9.69636
 2042.14595   11.80532   77.43919   43.18534   28.64566   10.09453    0.28455    4.99867    2.19024  -10.53676
 2042.29835   11.81568   78.69935   42.88000   28.39838   10.06146    0.27902    4.94304    2.20048  -10.94120
 2042.45075   11.83735   85.33002   42.51659   28.08614   10.25170    0.27097    4.78608    2.20750  -11.61108
 2042.60315   11.84493   87.48004   42.40993   27.99554   10.32854    0.27231    4.66492    2.20509  -11.94677
 2042.75555   11.82157   86.07973   42.28091   27.87268    9.50632    0.29567    4.51618    2.20663  -12.60656
 2042.90795   11.78478   84.03132   42.22267   27.78596    8.76654    0.29970    4.51523    2.21462  -13.14714
 2043.06035   11.73648   76.28989   42.11611   27.60782    8.21106    0.29094    4.60094    2.21450  -13.98522
 2043.21275   11.72754   69.85047   41.92767   27.37702    8.38349    0.28924    4.61323    2.20184  -14.27886
 2043.36515   11.72523   66.52772   41.34459   26.80548    8.69923    0.28474    4.53998    2.19263  -14.27475
 2043.51755   11.72416   67.57798   40.52206   26.07022    8.68584    0.26395    4.47125    2.19718  -13.97489
 2043.66995   11.72267   66.55329   39.09163   24.92902    8.48161    0.26542    4.49159    2.20424  -13.39970
 2043.82235   11.72189   64.97110   37.74926   23.97878    8.52793    0.27590    4.58329    2.20790  -12.75717
 2043.97475   11.72302   64.96371   35.93417   22.89405    8.82580    0.26074    4.70579    2.22327  -11.57003
 2044.12715   11.72495   67.16879   34.62362   22.09808    8.59477    0.26417    4.70383    2.23318  -10.47301
 2044.27955   11.72558   68.31242   33.35713   21.14857    7.93848    0.25538    4.47952    2.22408   -8.92271
 2044.43195   11.72632   65.25414   33.03545   20.69465    7.71433    0.26283    4.29425    2.22076   -8.04688
 2044.58435   11.73049   64.44510   32.34164   20.05679    7.82736    0.27872    4.27897    2.22921   -6.82106
 2044.73675   11.73321   66.15079   29.87303   18.72479    7.89592    0.26368    4.38083    2.23419   -5.94054
 2044.88915   11.73505   66.43572   25.58745   16.57309    7.84627    0.26729    4.43455    2.23475   -5.00085
 2045.04155   11.71050   64.03534   17.47302   11.87602    5.80615    0.29099    4.38795    2.22407   -3.48035
 2045.19395   11.68397   64.51926   13.57933    9.13470    4.31143    0.26824    4.34548    2.22009   -1.96305
 2045.34635   11.62582   66.37433    9.84253    6.44635    2.82998    0.28248    4.24252    2.21989    1.58389
 2045.49875   11.59147   67.97719    8.77481    5.76664    2.73872    0.27962    4.14912    2.21505    3.73991
 2045.65115   11.55823   67.83903    8.15603    5.54018    2.80222    0.27176    4.13551    2.22238    5.37844
 2045.80355   11.52926   68.70392    8.20693    5.73309    2.86336    0.28728    4.15639    2.23068    5.74389
 2045.95595   11.48950   76.48428    8.53618    6.15447    3.07891    0.33413    3.78662    2.22480    5.87046
 2046.10835   11.49796   77.96972    8.73008    6.44605    3.29718    0.36427    3.37059    2.21579    5.97409
 2046.26075   11.56876   72.66170    8.84278    6.74885    3.60543    0.41351    3.03827    2.20304    5.97041
 2046.41315   11.60642   71.13148    8.85548    6.88043    3.64950    0.41137    3.11287    2.19622    5.93754
 2046.56555   11.61954   75.99414    8.84103    6.95249    3.65191    0.39985    3.34275    2.19103    5.79495
 2046.71795   11.61350   75.66216    8.83944    6.94259    3.64416    0.42718    3.47618    2.19463    5.71675
 2046.87035   11.61682   69.24552    8.83630    6.80905    3.78235    0.38806    3.46786    2.20600    5.32621
 2047.02275   11.64085   67.81563    8.78094    6.62991    3.86457    0.38916    3.34322    2.21336    5.07788
 2047.17515   11.70041   69.52123    8.50362    6.26038    3.83155    0.36387    3.23577    2.23224    4.77552
 2047.32755   11.72149   68.84849    8.11673    5.87276    3.74451    0.36713    3.34097    2.24487    4.39436
 2047.47995   11.68931   67.57682    7.65096    5.41604    3.62389    0.36811    3.43714    2.24058    4.25021
 2047.63235   11.66773   67.48312    7.68635    5.36943    3.36849    0.36896    3.41008    2.23664    4.23883
 2047.78475   11.68458   68.19801    8.90255    6.29858    3.47336    0.35647    3.41245    2.23081    3.68737
 2047.93715   11.71114   68.89351   11.28575    8.32504    4.75639    0.34285    3.29969    2.21490    2.51487
 2048.08955   11.73927   69.38413   14.61315   11.21441    6.71348    0.35779    3.08361    2.20045    0.56238
 2048.24195   11.77101   66.84109   22.63767   16.96264    9.61808    0.35339    2.96893    2.20891   -3.34073
 2048.39435   11.78669   67.62843   27.03261   19.68921    9.23194    0.33118    3.24046    2.22457   -5.31705
 2048.54675   11.79207   67.17098   30.04757   21.99245    9.38424    0.31647    4.16493    2.23964   -6.94815
 2048.69915   11.79071   63.72455   29.47865   22.05169    9.91350    0.29246    4.61747    2.23770   -7.24684
 2048.85155   11.79490   60.31902   28.61287   21.97221   10.58373    0.27939    4.69732    2.22014   -7.44045
 2049.00395   11.79563   60.25679   28.62828   22.03098   10.27616    0.28106    4.65287    2.21185   -7.19495
 2049.15635   11.77451   61.51194   28.09332   21.72044   10.03735    0.27771    4.79338    2.21503   -6.65298
 2049.30875   11.75657   64.55416   23.69822   19.60614   10.14184    0.26981    4.87458    2.21755   -5.80786
 2049.46115   11.76589   69.22336   14.59669   13.82353   10.96037    0.26333    4.82968    2.21147   -4.67060
 2049.61355   11.79578   73.33205   10.00864    9.78098   11.07787    0.28432    4.70806    2.21218   -4.05124
 2049.76595   11.84031  104.39894    7.14386    6.34681    8.35946    0.27262    4.56567    2.21863   -3.77784
 2049.91835   11.85632  152.68417    6.61473    5.59839    6.76409    0.26572    4.58625    2.21771   -3.79455
 2050.07075   11.84326  200.55905    9.16731    8.40240    7.95594    0.26774    4.74843    2.21502   -4.20811
 2050.22315   11.82518  198.32643   13.14786   12.41934    9.04524    0.26433    4.93509    2.23737   -4.69756
 2050.37555   11.80988  143.89616   22.31454   18.70186    9.38552    0.27237    5.48799    2.34348   -5.83387
 2050.52795   11.80451  105.67339   29.97149   23.14622    9.57909    0.28274    5.84770    2.40685   -6.55003
 2050.68035   11.80067   80.33009   32.51927   25.61513   10.09687    0.33098    5.61753    2.33902   -7.27843
 2050.83275   11.81053   71.67187   32.55121   26.35385   10.54563    0.32536    5.25437    2.25979   -7.67962
 2050.98515   11.84889   68.29230   32.80469   26.88687   10.89294    0.30788    4.97056    2.21357   -8.20161
 2051.13755   11.87306   67.28356   33.36488   27.17324    9.75738    0.29778    4.90187    2.20717   -8.40896
 2051.28995   11.87308   65.42519   34.08251   27.42674    9.49352    0.29687    4.84261    2.20354   -8.77162
 2051.44235   11.85339   60.66512   35.59726   27.91383   10.33728    0.30503    4.77365    2.19442   -8.96326
 2051.59475   11.84566   60.25345   36.66712   28.21895   10.68627    0.30863    4.89087    2.18745   -9.20462
 2051.74715   11.85076   62.50333   37.89702   28.56274   10.46361    0.31409    5.29055    2.18411   -9.14523
 2051.89955   11.85489   61.97086   38.43794   28.71843   10.17641    0.29740    5.41981    2.19418   -9.25180
 2052.05195   11.85352   58.67959   38.73985   28.85869    9.70092    0.33222    5.23064    2.21638   -9.33097
 2052.20435   11.85028   58.64056   38.81029   28.90750    9.42667    0.31141    5.05553    2.22277   -9.40286
 2052.35675   11.85087   65.06807   39.04555   29.00614    9.28942    0.28864    4.93439    2.21847   -9.45607
